Serial_Number,Location name,ESMI_ID,From date,To date,District,State,Category,Connection Type,Lat,Lon,Duplicates_ESMI_Scrapping,
1,5th phase JP Nagar,,7/7/2016,6/12/2017,Bengaluru Urban,Karnataka,State Capital,Domestic,12.90109183,77.58914966,,
2,80 feet road,,9/6/2015,10/2/2018,Dhule,Maharashtra,District Headquarters,Domestic,20.89519943,74.7759818,,
3,Adarsh Nagar ,,3/2/2016,1/22/2017,Saharsa,Bihar,District Headquarters,Domestic,25.88350653,86.6149189,,Offline
4,Adgaon,,5/4/2018,12/31/2018,Nashik,Maharashtra,Gram Panchayat,Domestic,20.03718415,73.85013615,,
5,Agarchitti,,11/23/2016,6/12/2017,Chamoli,Uttarakhand,Gram Panchayat,Domestic,30.01611644,79.3087354,,Offline
6,Agarwal Mohalla Jarwal Kasba,,1/26/2018,12/31/2018,Bahraich,Uttar Pradesh,Other Municipal Area,Domestic,27.5745663,81.60125142,,
7,Agri road Chidambaram,,4/28/2018,12/31/2018,Cuddalore,Tamil Nadu,Other Municipal Area,Domestic,11.39068363,79.72175538,,
8,Aishbagh,,11/3/2017,3/14/2018,Lucknow,Uttar Pradesh,State Capital,Domestic,26.84126749,80.90386321,,
9,Ajekar,,1/9/2015,5/15/2015,Udupi,Karnataka,Gram Panchayat,Domestic,13.32050918,74.99880704,,Offline
10,Akoli Jehangir ,,10/31/2014,3/8/2015,Akola,Maharashtra,Gram Panchayat,Domestic,21.15483668,77.11846612,,Offline
11,Akot ,,11/24/2014,1/7/2017,Akola,Maharashtra,Other Municipal Area,Domestic,21.09598742,77.05470386,,Offline
12,Alambagh,,11/24/2014,12/31/2018,Lucknow,Uttar Pradesh,State Capital,Domestic,26.80801799,80.89713709,,
13,Alandur,,10/29/2014,12/31/2018,Chennai,Tamil Nadu,State Capital,Domestic,13.0008823,80.19930343,,
14,Aliganj,,6/21/2016,12/31/2018,Lucknow,Uttar Pradesh,State Capital,Non Domestic,26.89770276,80.94634345,,
15,Alipur Road,,12/16/2014,5/30/2016,Kolkata,West Bengal,State Capital,Domestic,22.52821233,88.33302228,,Offline
16,Allipur,,12/16/2016,12/31/2018,Fatehpur,Uttar Pradesh,Gram Panchayat,Domestic,25.77271525,81.24369716,,
17,Amar Nagar,,12/15/2014,12/31/2018,Nagpur,Maharashtra,District Headquarters,Domestic,21.10087868,79.11072152,,
18,Ambathur Chennai,,4/11/2018,12/20/2018,Thiruvallur,Tamil Nadu,State Capital,Domestic,13.11873319,80.14558912,,
19,Ameerpeth,171,1/6/2015,12/31/2018,Hyderabad,Telangana,State Capital,Domestic,17.43923119,78.44454787,Y,
20,Amoni,,3/31/2017,4/29/2018,Bhopal,Madhya Pradesh,Gram Panchayat,Non Domestic,23.36816561,77.54215302,,
21,Anand Nagar Sitapur,,2/26/2018,12/31/2018,Sitapur,Uttar Pradesh,District Headquarters,Domestic,27.56551131,80.69731311,,
22,Anegundi,,3/4/2017,8/26/2017,Koppal,Karnataka,Gram Panchayat,Non Domestic,15.3526957,76.49206813,,
23,Angol,,10/13/2015,12/31/2018,Belgaum,Karnataka,District Headquarters,Domestic,15.82390411,74.50536576,,
24,Anjad,,9/20/2015,10/23/2017,Barwani,Madhya Pradesh,Other Municipal Area,Domestic,22.0426494,75.05567134,,Offline
25,Arera Colony ,,8/4/2015,12/31/2018,Bhopal,Madhya Pradesh,State Capital,Domestic,23.211293,77.43422528,,
26,Arjun Nagar,,5/25/2016,12/31/2018,Ghaziabad,Uttar Pradesh,District Headquarters,Domestic,28.6589157,77.4320992,,
27,Arvind Marg,,11/24/2016,12/31/2018,Dehradun,Uttarakhand,State Capital,Domestic,30.33452201,78.05902906,,
28,ASEB Campus,,12/15/2016,3/17/2018,Guwahati,Assam,State Capital,Non Domestic,26.15030488,91.76251583,,
29,Ashiana,,11/3/2017,11/7/2018,Lucknow,Uttar Pradesh,State Capital,Domestic,26.78748245,80.91498766,,Offline
30,Ashok Nagar ,,10/26/2015,12/31/2018,Nashik,Maharashtra,District Headquarters,Domestic,19.98824727,73.71750658,,
31,Ashoka Garden Bhopal,,3/30/2017,12/31/2018,Bhopal,Madhya Pradesh,District Headquarters,Domestic,23.25515676,77.43005477,,
32,Aundh,,10/31/2014,12/31/2018,Pune,Maharashtra,District Headquarters,Domestic,18.55773612,73.80588097,,
33,Avadi Chennai,,1/15/2018,12/31/2018,Thiruvallur,Tamil Nadu,Other Municipal Area,Domestic,13.11236984,80.0893033,,
34,Awali,,9/20/2015,5/22/2016,Barwani,Madhya Pradesh,Gram Panchayat,Agriculture,22.07918027,75.02266134,,Offline
35,Awas Vikas colony Barabanki,,1/16/2018,12/31/2018,Barabanki,Uttar Pradesh,District Headquarters,Domestic,26.91753358,81.17712705,,
36,Badgujar Colony ,,9/5/2015,12/31/2018,Dhule,Maharashtra,District Headquarters,Domestic,20.9325046,74.7740825,,
37,Bag Kala Lan Saharanpur ,,1/18/2017,2/24/2017,Saharanpur,Uttar Pradesh,District Headquarters,Domestic,29.96567162,77.52377267,,Offline
38,Bagh Farahat Afza Bhopal,,7/8/2017,2/12/2018,Bhopal,Madhya Pradesh,District Headquarters,Domestic,23.25809485,77.42511524,,
39,Baghru ,,12/15/2015,12/31/2018,Jaipur,Rajasthan,Other Municipal Area,Domestic,26.81179206,75.55027528,,
40,Bagodar,,5/13/2017,1/12/2018,Giridih,Jharkhand,Other Municipal Area,Domestic,24.07784757,85.83067118,,Offline
41,Bahadurpur,,1/5/2018,12/31/2018,Bahraich,Uttar Pradesh,Gram Panchayat,Domestic,27.53504413,81.62450394,,
42,Baijnathpur,,2/26/2016,12/31/2018,Saharsa,Bihar,Gram Panchayat,Domestic,25.890444,86.64493456,,
43,Bail Bazar,,9/7/2015,12/31/2018,Thane,Maharashtra,Other Municipal Area,Domestic,19.23735451,73.12548363,,Offline
44,Bajirao Road,,10/22/2014,12/31/2018,Pune,Maharashtra,District Headquarters,Non Domestic,18.51099092,73.85341769,,
45,Balaji Nagar,,11/24/2014,12/19/2017,Akola,Maharashtra,District Headquarters,Domestic,20.71498661,76.96890652,,Offline
46,Baluaha,,2/18/2016,12/19/2016,Saharsa,Bihar,Gram Panchayat,Domestic,25.88347072,86.45497813,,Offline
47,Bamunimaidan,,12/16/2016,12/31/2018,Guwahati,Assam,State Capital,Domestic,26.18634742,91.78948776,,
48,Baner,,10/30/2014,12/31/2018,Pune,Maharashtra,District Headquarters,Domestic,18.55992891,73.78388672,,
49,Bangaon,,3/2/2016,10/23/2017,Saharsa,Bihar,Gram Panchayat,Domestic,25.86642813,86.51280429,,Offline
50,Bangi Kunta Raichur,,3/13/2018,12/31/2018,Raichur,Karnataka,District Headquarters,Domestic,16.20668853,77.3612175,,
51,Banjara hills,673,6/2/2017,12/31/2018,Hyderabad,Telangana,State Capital,Domestic,17.41633466,78.43680459,Y,
52,Bank Colony,,5/23/2016,3/12/2018,Sasaram,Bihar,District Headquarters,Domestic,24.95135149,84.00110069,,
53,Baramati,,11/5/2014,7/8/2018,Pune,Maharashtra,Other Municipal Area,Domestic,18.18078997,74.5917106,,
54,Barapal,,6/12/2016,8/27/2016,Udaipur,Rajasthan,Gram Panchayat,Domestic,24.38630518,73.63825877,,
55,Baraulia,,12/31/2017,9/18/2018,Barabanki,Uttar Pradesh,Gram Panchayat,Domestic,26.99647595,81.4888011,,
56,Bardaha,,5/26/2018,12/31/2018,Bahraich,Uttar Pradesh,Gram Panchayat,Domestic,27.80879291,81.4127413,,
57,Bari Bag Saharanpur,,1/4/2017,12/31/2018,Saharanpur,Uttar Pradesh,District Headquarters,Domestic,29.96664606,77.56208735,,
58,Barra 2,,8/6/2015,8/17/2015,Kanpur,Uttar Pradesh,District Headquarters,Domestic,26.43465751,80.30154314,,Offline
59,Barra ,,8/6/2015,8/23/2017,Kanpur,Uttar Pradesh,District Headquarters,Domestic,26.43465751,80.30154314,,Offline
60,Basaweshwara Nagar,,9/25/2015,8/21/2017,Bengaluru Urban,Karnataka,State Capital,Domestic,12.99141592,77.53995035,,
61,Bashirganj Bahraich,,11/15/2017,9/16/2018,Bahraich,Uttar Pradesh,District Headquarters,Domestic,27.58014018,81.58421521,,
62,Belguria,,12/16/2014,4/18/2015,Kolkata,West Bengal,State Capital,Domestic,22.66550982,88.3870016,,Offline
63,Belhara,,12/17/2017,8/23/2018,Barabanki,Uttar Pradesh,Other Municipal Area,Domestic,27.24747106,81.24059436,,Offline
64,Benaulim,,1/28/2016,12/15/2017,Salcete,Goa,Gram Panchayat,Non Domestic,15.24868035,73.93853691,,
65,Besa,,10/7/2015,12/31/2018,Nagpur,Maharashtra,District Headquarters,Non Domestic,21.08701093,79.08872136,,
66,Betalbatim,,1/29/2016,1/12/2017,South Goa,Goa,Gram Panchayat,Non Domestic,15.29966988,73.91935207,,Offline
67,Bethora,,2/3/2016,12/31/2018,North Goa,Goa,Gram Panchayat,Non Domestic,15.38889624,74.02721893,,
68,Bhadupur Sidhauli,,10/25/2017,12/31/2018,Sitapur,Uttar Pradesh,Other Municipal Area,Domestic,27.28596747,80.85029529,,
69,Bhagrahan Tola Nanpara ,,11/10/2017,6/30/2018,Bahraich,Uttar Pradesh,Other Municipal Area,Domestic,27.87461772,81.48998704,,Offline
70,Bhagyanagar,,10/30/2014,12/31/2018,Belgaum,Karnataka,District Headquarters,Domestic,15.82888217,74.5058591,,
71,Bhairav Talab ,,8/31/2015,4/12/2016,Varanasi,Uttar Pradesh,District Headquarters,Domestic,25.28750961,82.8488257,,Offline
72,Bhajanpura,,5/22/2015,12/31/2018,North East Delhi,Delhi,State Capital,Domestic,28.70016123,77.26070656,,
73,Bhaji market,,9/6/2015,12/22/2016,Dhule,Maharashtra,District Headquarters,Domestic,20.9065582,74.75868721,,Offline
74,Bhatbigha,,3/29/2018,12/31/2018,Hazaribagh,Jharkhand,Gram Panchayat,Domestic,24.38097062,85.4017871,,
75,Bhatghar ,,12/2/2014,10/10/2016,Satara,Maharashtra,Gram Panchayat,Domestic,18.16544084,73.85562305,,Offline
76,Bhattha Mehmoodabad,,11/7/2017,12/31/2018,Sitapur,Uttar Pradesh,Other Municipal Area,Domestic,27.29463748,81.12009645,,
77,Bhavaniyapur Baharaich,,11/16/2017,12/31/2018,Bahraich,Uttar Pradesh,Gram Panchayat,Domestic,28.03205644,81.62436765,,
78,Bhendali,,5/13/2018,7/29/2018,Nashik,Maharashtra,Gram Panchayat,Domestic,19.97230507,74.06110709,,
79,Bhimatangi Housing Colony Bhubaneswar,,11/30/2017,12/11/2018,Khordha,Odisha,State Capital,Domestic,20.23671836,85.82085681,,
80,Bhopoli,464,8/1/2016,12/31/2018,Palghar,Maharashtra,Gram Panchayat,Non Domestic,19.76882219,72.98962358,Y,
81,Bhosari,,10/22/2014,12/31/2018,Pune,Maharashtra,Other Municipal Area,Non Domestic,18.63296389,73.84801811,,
82,Bhupauli,,8/31/2015,2/15/2016,Chandauli ,Uttar Pradesh,Gram Panchayat,Domestic,25.34269662,83.17048373,,Offline
83,Bibwewadi ,,8/26/2015,12/31/2018,Pune,Maharashtra,District Headquarters,Domestic,18.46852725,73.8737372,,
84,Birhana Road,,8/6/2015,5/21/2016,Kanpur,Uttar Pradesh,District Headquarters,Non Domestic,26.46273361,80.35442154,,Offline
85,Biswan,,2/23/2018,12/31/2018,Sitapur,Uttar Pradesh,Other Municipal Area,Domestic,27.49357456,80.99588927,,
86,Bodireddypally,,2/19/2016,12/31/2018,Prakasam,Andhra Pradesh,Gram Panchayat,Domestic,15.90374042,79.31677226,,
87,Boiguda,,12/9/2015,1/31/2018,Hyderabad,Telangana,State Capital,Domestic,17.42826004,78.4992189,,Offline
88,Brahmavar,,1/9/2015,12/31/2018,Udupi,Karnataka,Other Municipal Area,Domestic,13.43419552,74.74114949,,
89,Brahmpuri,,6/21/2016,5/8/2018,Udaipur,Rajasthan,District Headquarters,Domestic,24.57742234,73.69293966,,Offline
90,Brandawan,,12/23/2017,12/31/2018,Barabanki,Uttar Pradesh,Gram Panchayat,Domestic,26.93974454,81.19798785,,
91,BTM Layout,,11/5/2014,6/12/2017,Bengaluru Urban,Karnataka,State Capital,Domestic,12.91468881,77.61130332,,Offline
92,Capital Electrical Subdivision,,12/16/2016,12/31/2018,Guwahati,Assam,State Capital,Non Domestic,26.14168261,91.78720489,,
93,Carambolim,,1/29/2016,12/31/2018,North Goa,Goa,Gram Panchayat,Domestic,15.49309301,73.93698575,,
94,Chakia,,11/1/2015,3/23/2016,Chandauli,Uttar Pradesh,Other Municipal Area,Domestic,25.05690034,83.22459689,,Offline
95,Chandikapur,,11/24/2014,4/16/2018,Akola,Maharashtra,Gram Panchayat,Agriculture,20.98300105,77.5078143,,
96,Chandori,,5/12/2018,12/31/2018,Nashik,Maharashtra,Gram Panchayat,Domestic,20.0250979,73.99864664,,
97,Chandra Layout,,12/16/2014,6/22/2018,Bengaluru Urban,Karnataka,State Capital,Domestic,12.95327145,77.52353936,,
98,Chandrasekharpur Bhubaneswar,,12/28/2017,12/13/2018,Khordha,Odisha,State Capital,Domestic,20.32985647,85.81383097,,
99,Chatali Village,,1/13/2016,6/25/2018,Barwani,Madhya Pradesh,Gram Panchayat,Domestic,21.67175334,75.03459326,,Offline
100,Chatali,,2/17/2016,12/1/2016,Barwani,Madhya Pradesh,Gram Panchayat,Agriculture,21.67184487,75.03392816,,Offline
101,Chatori,,5/5/2018,12/31/2018,Nashik,Maharashtra,Gram Panchayat,Domestic,19.99464484,73.99533579,,
102,Chhota Badada ,,9/17/2015,11/13/2017,Barwani,Madhya Pradesh,Gram Panchayat,Domestic,22.03827771,74.904031,,Offline
103,Chichaliya ,,10/8/2015,10/22/2015,Barwani,Madhya Pradesh,Gram Panchayat,Domestic,22.09817706,75.58861816,,Offline
104,Chirgaon,,1/25/2017,10/23/2017,Jhansi,Uttar Pradesh,Other Municipal Area,Domestic,25.57386885,78.81891825,,Offline
105,Chitegaon phata,,5/12/2018,12/31/2018,Nashik,Maharashtra,Gram Panchayat,Non Domestic,19.74018289,75.30196632,,
106,Chitlapakkam Chennai,,12/14/2017,10/20/2018,Kancheepuram,Tamil Nadu,State Capital,Domestic,12.93499789,80.14353326,,
107,Chouksey Nagar Bhopal,,3/30/2017,12/31/2018,Bhopal,Madhya Pradesh,District Headquarters,Domestic,23.27708916,77.404817,,
108,Chowk Bazar Jarwal Kasba,,11/28/2017,12/31/2018,Bahraich,Uttar Pradesh,Other Municipal Area,Domestic,27.57485766,81.59932256,,
109,Chunaitee Gara,,12/19/2016,12/31/2018,Saharanpur,Uttar Pradesh,Gram Panchayat,Domestic,29.96376789,77.55531046,,
110,Civil Line,,8/5/2015,10/23/2017,Kanpur,Uttar Pradesh,District Headquarters,Non Domestic,26.47325628,80.35636776,,Offline
111,Civil line,,1/5/2017,9/15/2017,Fatehpur,Uttar Pradesh,District Headquarters,Domestic,25.92561407,80.80342309,,
112,Civil Lines ,,12/18/2015,12/31/2018,Jaipur,Rajasthan,State Capital,Non Domestic,26.90745991,75.78264405,,
113,Civil lines Jhansi ,,12/27/2016,4/27/2017,Jhansi,Uttar Pradesh,District Headquarters,Domestic,25.44432972,78.5703458,,Offline
114,Colva,,1/13/2016,2/8/2016,South Goa,Goa,Gram Panchayat,Non Domestic,15.27550507,73.91819425,,Offline
115,Congress Nagar,,12/1/2015,12/31/2018,Nagpur,Maharashtra,District Headquarters,Domestic,21.13258935,79.08440136,,
116,Congress Road,,5/30/2016,12/31/2018,Belgaum,Karnataka,District Headquarters,Non Domestic,15.83814416,74.50174503,,
117,Cuncolim,,3/26/2016,12/31/2018,South Goa,Goa,Gram Panchayat,Domestic,15.18563625,74.0058115,,
118,Curti Ponda,,1/28/2016,7/25/2018,North Goa,Goa,Gram Panchayat,Non Domestic,15.4248499,74.02238142,,
119,Dandia Bazar Vadodara,,3/31/2017,12/31/2018,Vadodara,Gujarat,District Headquarters,Domestic,22.30156076,73.19743886,,
120,Dariyabad,,12/21/2017,10/8/2018,Barabanki,Uttar Pradesh,Other Municipal Area,Domestic,26.8857687,81.55593392,,
121,Dashehrabagh Barabanki,,12/18/2017,12/31/2018,Barabanki,Uttar Pradesh,District Headquarters,Domestic,26.93861855,81.1959233,,
122,Datalpara,,12/15/2016,12/31/2018,Guwahati,Assam,State Capital,Domestic,26.12976451,91.72208111,,
123,Daudpur,,11/1/2015,11/23/2015,Chandauli,Uttar Pradesh,Gram Panchayat,Domestic,25.03092999,83.14272761,,Offline
124,Debari Village,,7/20/2016,7/27/2017,Udaipur,Rajasthan,Gram Panchayat,Domestic,24.60278384,73.81640198,,
125,Devangana Hazaribagh,,4/3/2018,12/31/2018,Hazaribagh,Jharkhand,District Headquarters,Domestic,23.99493465,85.36546372,,
126,Deopur,302,9/6/2015,12/31/2018,Dhule,Maharashtra,District Headquarters,Domestic,20.9157471,74.77732101,Y,
127,Devtapur,,8/18/2015,6/3/2018,Sitapur,Uttar Pradesh,Gram Panchayat,Domestic,27.56964894,81.09151214,,Offline
128,Dhakuria Kolkata,,4/18/2017,12/31/2018,Kolkata,West Bengal,State Capital,Domestic,22.50817279,88.3636362,,
129,Dhaneja,,11/1/2015,5/25/2017,Chandauli,Uttar Pradesh,Gram Panchayat,Domestic,25.18890372,83.21262134,,Offline
130,Dhangar Toli Chatra ,,4/27/2017,5/19/2017,Chatra,Jharkhand,District Headquarters,Domestic,24.2050015,84.87215966,,Offline
131,Dhanoli Agra,,12/28/2016,4/29/2018,Agra,Uttar Pradesh,Gram Panchayat,Non Domestic,27.17991484,78.01989285,,
132,Dhanwa Ramsahaypurwa Bahraich ,,11/17/2017,2/21/2018,Bahraich,Uttar Pradesh,Gram Panchayat,Domestic,27.70231121,81.32303886,,Offline
133,Dharampur,,8/29/2016,6/23/2018,Sitapur,Uttar Pradesh,Gram Panchayat,Domestic,28.9383579,78.92633098,,
134,Dhawatand,,5/12/2017,5/26/2017,Giridih,Jharkhand,Gram Panchayat,Domestic,24.188007,86.28726105,,Offline
135,Dondolo,,5/13/2017,6/19/2018,Giridih,Jharkhand,Gram Panchayat,Domestic,24.188007,86.28726105,,Offline
136,Dumar,,9/1/2017,10/20/2017,Hazaribagh,Jharkhand,Gram Panchayat,Domestic,23.91415969,85.49563473,,
137,Fatehpur,,12/17/2017,12/31/2018,Barabanki,Uttar Pradesh,Other Municipal Area,Domestic,27.17394843,81.21224629,,
138,Fazalganj,,1/4/2016,12/2/2018,Sasaram,Bihar,District Headquarters,Domestic,24.95496283,83.99858329,,
139,Firozpur Suratganj,741,4/20/2018,12/31/2018,Barabanki,Uttar Pradesh,Gram Panchayat,Domestic,27.19876711,81.33255924,Y,
140,Gachibowli ,,11/29/2015,12/31/2018,Hyderabad,Telangana,State Capital,Domestic,17.44298616,78.33711266,,
141,Gajipur ,,11/8/2014,2/25/2016,Akola,Maharashtra,Gram Panchayat,Non Domestic,20.702484,77.02414989,,Offline
142,Galagihulukoppa,,3/25/2017,6/2/2017,Dharwad,Karnataka,Gram Panchayat,Non Domestic,15.46365754,74.99466058,,Offline
143,Gandhi Nagar  Semmandalam,,1/15/2018,5/19/2018,Cuddalore,Tamil Nadu,District Headquarters,Domestic,11.76234103,79.74899696,,
144,Ganeshpur,,11/3/2017,12/31/2018,Barabanki,Uttar Pradesh,Gram Panchayat,Domestic,26.89875669,81.14399611,,
145,Gangjala,,3/2/2016,8/17/2017,Saharsa,Bihar,District Headquarters,Domestic,25.88435826,86.59998899,,Offline
146,Garladinne,,1/5/2015,12/31/2018,Anantpur,Andhra Pradesh,Other Municipal Area,Domestic,14.82373144,77.59601775,,
147,Ghulam Ali Pura Bahraich,,11/15/2017,6/9/2018,Bahraich,Uttar Pradesh,District Headquarters,Domestic,27.58682599,81.59360107,,
148,Gimhavne,,5/25/2017,12/31/2018,Ratnagiri,Maharashtra,Gram Panchayat,Domestic,17.76384213,73.1680006,,
149,GNB road,,12/15/2016,12/31/2018,Guwahati,Assam,State Capital,Domestic,26.18544549,91.75615428,,
150,Gogal Madgaon,,1/28/2016,12/31/2018,South Goa,Goa,District Headquarters,Domestic,15.29056706,73.98886158,,
151,Gohaibari,,12/15/2016,12/29/2017,Guwahati,Assam,State Capital,Domestic,26.30293374,92.58102087,,
152,Gollapalle,,2/10/2016,2/3/2018,Prakasam,Andhra Pradesh,Gram Panchayat,Agriculture,15.92544764,79.3970079,,Offline
153,Golpark ,,12/16/2014,10/16/2017,Kolkata,West Bengal,State Capital,Domestic,22.5167072,88.366301,,Offline
154,Gondaura,,11/3/2017,12/31/2018,Barabanki,Uttar Pradesh,Gram Panchayat,Domestic,27.09630203,81.37569039,,
155,Gondur,,9/6/2015,12/31/2018,Dhule,Maharashtra,Gram Panchayat,Agriculture,20.96155658,74.700489,,
156,Gopalapuram,,12/16/2014,12/31/2018,Chennai,Tamil Nadu,State Capital,Domestic,13.05009581,80.25754225,,
157,Govardhanagiri Avadi,,4/11/2018,12/2/2018,Thiruvallur,Tamil Nadu,State Capital,Domestic,13.09925103,80.10779506,,
158,Guddiangadi,,1/7/2015,12/31/2018,Udupi,Karnataka,Gram Panchayat,Domestic,13.32082826,74.88097774,,
159,Guhagar (C),,3/12/2017,12/31/2018,Ratnagiri,Maharashtra,Other Municipal Area,Non Domestic,17.47825989,73.19755345,,
160,Guhagar (R),,3/14/2017,12/31/2018,Ratnagiri,Maharashtra,Other Municipal Area,Domestic,17.47825989,73.19755345,,
161,Guwahati Club,,12/16/2016,8/11/2017,Guwahati,Assam,State Capital,Non Domestic,26.18497,91.75817725,,Offline
162,Gwartala Gairsain,,11/24/2016,12/31/2018,Chamoli,Uttarakhand,District Headquarters,Domestic,30.0532888,79.28725716,,
163,Haidergarh,,1/14/2018,12/31/2018,Barabanki,Uttar Pradesh,Other Municipal Area,Domestic,26.60598428,81.36501297,,
164,Halbhavi Camp,,7/11/2016,12/31/2018,Belgaum,Karnataka,District Headquarters,Domestic,15.88153813,74.5334616,,
165,Haqikatnagar Saharanpur,,12/29/2016,5/29/2018,Saharanpur,Uttar Pradesh,District Headquarters,Domestic,29.94763735,77.55201268,,
166,Harladih,,5/13/2017,5/29/2017,Giridih,Jharkhand,Gram Panchayat,Domestic,23.85133207,85.93987285,,
167,Harsinghpur,,1/3/2017,2/1/2017,Fatehpur,Uttar Pradesh,Gram Panchayat,Domestic,26.12067428,80.59367393,,Offline
168,Hathroi,,11/24/2015,6/12/2017,Jaipur,Rajasthan,State Capital,Domestic,26.91611967,75.79675915,,Offline
169,Hedayetpur,,12/16/2016,11/24/2018,Guwahati,Assam,State Capital,Domestic,26.18364731,91.75906671,,
170,Hindawadi,,11/9/2016,12/31/2018,Belgaum,Karnataka,District Headquarters,Domestic,15.83605197,74.51228034,,
171,Hiwarkhed (I) ,,11/24/2014,6/19/2017,Akola,Maharashtra,Gram Panchayat,Non Domestic,21.1326451,76.85742144,,Offline
172,Hiwarkhed (R),,11/24/2014,12/31/2018,Akola,Maharashtra,Gram Panchayat,Domestic,21.1326451,76.85742144,,
173,Housila Nagar Faizabad,,1/7/2017,9/4/2017,Faizabad,Uttar Pradesh,District Headquarters,Domestic,26.76655016,82.12361026,,
174,Hudem,,3/23/2017,6/11/2017,Bellary,Karnataka,Gram Panchayat,Non Domestic,14.63328262,76.58160706,,Offline
175,Husepur,,1/2/2017,11/9/2018,Fatehpur,Uttar Pradesh,Gram Panchayat,Domestic,26.04345549,80.50920134,,
176,Huzurpur road,,11/6/2017,12/31/2018,Kaisarganj,Uttar Pradesh,Gram Panchayat,Domestic,27.34788077,81.66906363,,
177,Huzurpur,,11/9/2017,12/31/2018,Bahraich,Uttar Pradesh,Gram Panchayat,Domestic,27.34788077,81.66906363,,
178,Hydel Colony Jhansi ,,1/2/2017,6/7/2017,Jhansi,Uttar Pradesh,District Headquarters,Domestic,25.45352549,78.56376981,,Offline
179,Ibrahimpur,,3/16/2018,12/31/2018,Barabanki,Uttar Pradesh,Gram Panchayat,Domestic,27.13832396,81.25081405,,
180,Ichauli,,7/31/2016,7/30/2018,Sitapur,Uttar Pradesh,Gram Panchayat,Domestic,26.4635005,81.0234539,,
181,Idu ,,1/9/2015,12/7/2015,Udupi,Karnataka,Gram Panchayat,Domestic,13.15287848,75.1660996,,Offline
182,Iggiri,,4/17/2017,10/15/2017,Bhopal,Madhya Pradesh,Gram Panchayat,Domestic,23.50765457,77.3544895,,Offline
183,Ikkadu,,2/26/2018,5/4/2018,Thiruvallur,Tamil Nadu,Other Municipal Area,Domestic,13.15781815,79.91876158,,
184,Inayat Nagar,,1/23/2017,9/26/2017,Faizabad,Uttar Pradesh,Gram Panchayat,Domestic,26.62319483,81.96056744,,
185,Inder Vihar Dehradun,,3/16/2017,12/15/2018,Dehradun,Uttarakhand,State Capital,Domestic,30.3381115,78.04920053,,
186,Indirapuram,,12/16/2014,12/31/2018,Ghaziabad,Uttar Pradesh,District Headquarters,Domestic,28.6495333,77.3660208,,
187,Industrial Phase 1,,8/26/2015,12/28/2017,Chandigarh,Chandigarh,State Capital,Non Domestic,30.70467583,76.80437471,,
188,Industrial Phase 2 ,,8/26/2015,6/19/2017,Chandigarh,Chandigarh,State Capital,Non Domestic,30.70827795,76.80224965,,Offline
189,Isri Bazar,,5/12/2017,12/8/2017,Giridih,Jharkhand,Gram Panchayat,Domestic,23.98414463,86.03354163,,
190,Jadavpur,,4/15/2017,12/31/2018,Kolkata,West Bengal,State Capital,Domestic,22.49472891,88.36585923,,
191,Jagatapur,,12/4/2017,12/31/2018,Bahraich,Uttar Pradesh,Gram Panchayat,Domestic,27.37874154,81.62153688,,
192,Jahanabad,,1/10/2017,5/28/2017,Fatehpur,Uttar Pradesh,Other Municipal Area,Non Domestic,26.10610659,80.35979467,,Offline
193,Jamboti ,,5/17/2016,12/31/2018,Belgaum,Karnataka,Gram Panchayat,Non Domestic,15.68975536,74.37122143,,
194,Jamui ,,8/14/2015,12/31/2018,Jamui,Bihar,District Headquarters,Domestic,24.92896768,86.22520803,,
195,Jan Path,,11/7/2014,12/31/2018,Bhuvaneshwar,Odisha,State Capital,Non Domestic,20.27566667,85.83698172,,
196,Jangaon,,9/21/2015,12/31/2018,Warangal,Telangana,Other Municipal Area,Non Domestic,17.72888875,79.15961532,,
197,Jankipuram Lucknow,,11/6/2017,12/31/2018,Lucknow,Uttar Pradesh,State Capital,Domestic,26.92299605,80.95321602,,
198,Jayanagar,,11/5/2014,6/12/2017,Bengaluru Urban,Karnataka,State Capital,Domestic,12.93577812,77.59204706,,Offline
199,Jayapur,,11/1/2015,6/22/2016,Varanasi,Uttar Pradesh,Gram Panchayat,Domestic,25.21124203,82.82179906,,Offline
200,Jaydev Vihar,,9/24/2017,12/31/2018,Bhuvaneshwar,Odisha,State Capital,Domestic,20.30057101,85.81452204,,
201,Jhar Pahar Jhansi,,12/16/2016,12/31/2018,Jhansi,Uttar Pradesh,District Headquarters,Domestic,25.44225038,78.56122948,,
202,Jhauwa Khurd,,8/30/2016,12/31/2018,Sitapur,Uttar Pradesh,Gram Panchayat,Domestic,27.5384702,81.07630371,,
203,Jhinjhoni,,12/12/2016,6/11/2017,Chamoli,Uttarakhand,Gram Panchayat,Domestic,30.14944578,79.33587566,,
204,Jhundapura,,2/21/2018,12/31/2018,Noida,Uttar Pradesh,District Headquarters,Domestic,28.59743754,77.33143839,,
205,Joka,,4/2/2018,12/31/2018,Kolkata,West Bengal,State Capital,Domestic,22.45234038,88.29913698,,
206,Jori,,2/26/2016,12/31/2018,Saharsa,Bihar,Gram Panchayat,Domestic,25.87899664,86.59957886,,
207,JP Nagar ,,11/5/2014,6/21/2018,Bengaluru Urban,Karnataka,State Capital,Non Domestic,12.89026075,77.57904016,,
208,Jungle Chatti,,11/23/2016,6/12/2017,Chamoli,Uttarakhand,District Headquarters,Domestic,30.1164589,79.27721503,,Offline
209,Juri Par Shanti Path,,12/16/2016,10/23/2017,Guwahati,Assam,State Capital,Domestic,26.15064383,91.70526885,,Offline
210,Jyotishah Alampur,,8/20/2016,1/18/2018,Sitapur,Uttar Pradesh,Gram Panchayat,Domestic,27.37371545,80.86221775,,Offline
211,Kadirabag 1 Ramnagar,,11/3/2017,12/31/2018,Barabanki,Uttar Pradesh,Other Municipal Area,Domestic,26.93882052,81.16980944,,
212,Kadiri,,11/17/2015,12/31/2018,Anantpur,Andhra Pradesh,Other Municipal Area,Domestic,14.12297816,78.16401492,,
213,Kadma,,5/22/2017,7/28/2018,Hazaribagh,Jharkhand,District Headquarters,Domestic,23.99430722,85.36546372,,Offline
214,Kakadeo,,9/5/2015,10/26/2018,Kanpur,Uttar Pradesh,District Headquarters,Domestic,26.47664257,80.28372602,,
215,Kakatiya Nagar,,11/5/2014,12/31/2018,Hyderabad,Telangana,State Capital,Domestic,17.41615318,78.54180189,,
216,Kalindi Housing Estate,,12/16/2014,11/27/2015,Kolkata,West Bengal,State Capital,Domestic,22.61155988,88.39922385,,Offline
217,Kalpataru Nagar ,,11/24/2014,12/31/2018,Nashik,Maharashtra,District Headquarters,Domestic,19.97722576,73.79887202,,
218,Kalyan Nagar,,8/26/2015,7/8/2018,Kurukshetra,Haryana,District Headquarters,Domestic,29.97182908,76.81950416,,Offline
219,Kamatwade,,8/26/2015,5/31/2017,Nashik,Maharashtra,District Headquarters,Domestic,19.97357987,73.74642793,,Offline
220,Kamhira Kathura ,,8/11/2016,12/31/2018,Sitapur,Uttar Pradesh,Gram Panchayat,Domestic,27.67764803,81.16810287,,
221,Kamkampalli,,11/17/2015,6/4/2017,Anantpur,Andhra Pradesh,Gram Panchayat,Domestic,14.66257736,77.59057063,,Offline
222,Kamraj Nagar Avadi,,4/7/2018,12/31/2018,Thiruvallur,Tamil Nadu,State Capital,Domestic,13.10595941,80.09637953,,
223,Kanheri Sarap,,11/5/2014,12/31/2018,Akola,Maharashtra,Gram Panchayat,Agriculture,20.63901912,77.04517719,,
224,Kanjaya,,9/21/2017,12/31/2018,Bahraich,Uttar Pradesh,Gram Panchayat,Domestic,27.26063676,81.66867452,,
225,Kanjwara,,12/13/2017,12/31/2018,Barabanki,Uttar Pradesh,Gram Panchayat,Domestic,26.99669522,81.16575139,,
226,Kankari,,8/18/2016,12/31/2018,Sitapur,Uttar Pradesh,Gram Panchayat,Domestic,27.64103297,81.18237785,,
227,Kannur,,3/25/2017,12/31/2018,Bijapur,Karnataka,Gram Panchayat,Non Domestic,17.03156921,75.70044593,,
228,Kanoongopura Bahraich,,5/23/2018,12/31/2018,Bahraich,Uttar Pradesh,District Headquarters,Domestic,27.57184831,81.60159172,,
229,Kapoorthala,704,11/3/2017,12/31/2018,Lucknow,Uttar Pradesh,State Capital,Domestic,26.88211723,80.94498838,Y,
230,Karkala ,,1/6/2015,10/12/2015,Udupi,Karnataka,Other Municipal Area,Non Domestic,13.21374823,74.99784371,,Offline
231,Karsanda,,12/5/2017,12/31/2018,Barabanki,Uttar Pradesh,Gram Panchayat,Domestic,27.08583629,80.93317348,,
232,Karsood,,8/1/2016,12/31/2018,Palghar,Maharashtra,Gram Panchayat,Domestic,19.69334719,72.76918741,,
233,Kasbe Sukene,,5/4/2018,12/31/2018,Nashik,Maharashtra,Gram Panchayat,Domestic,20.07836363,74.01511779,,
234,Kasraila,,12/2/2017,12/31/2018,Barabanki,Uttar Pradesh,Gram Panchayat,Domestic,26.97940533,81.47930906,,
235,Kasrawad Basahat ,,12/16/2014,1/25/2018,Barwani,Madhya Pradesh,Gram Panchayat,Domestic,22.05284845,74.93825034,,Offline
236,Katara Hills Bhopal,,4/3/2017,8/12/2017,Bhopal,Madhya Pradesh,District Headquarters,Domestic,23.19467351,77.48924005,,
237,Kaulagarh Dehradun,,11/18/2016,12/31/2018,Dehradun,Uttarakhand,State Capital,Domestic,30.35168868,78.00907672,,
238,Kedar Nagar Agra,,12/28/2016,12/31/2018,Agra,Uttar Pradesh,District Headquarters,Domestic,27.17550781,77.97348219,,
239,Keonjhar ,,9/5/2015,9/1/2016,Kendujhar,Odisha,Other Municipal Area,Domestic,21.64696343,85.60272104,,Offline
240,Keshwari,,5/13/2017,9/28/2018,Giridih,Jharkhand,Gram Panchayat,Domestic,24.18644028,85.8389339,,Offline
241,Kevai,,1/3/2017,1/7/2018,Fatehpur,Uttar Pradesh,Gram Panchayat,Domestic,25.93835257,80.56179129,,
242,Khade Bazar ,,5/5/2015,6/10/2018,Belgaum,Karnataka,District Headquarters,Domestic,15.86417694,74.51574681,,Offline
243,Khadki,,11/26/2014,12/31/2018,Akola,Maharashtra,Other Municipal Area,Domestic,20.6668927,77.02253531,,
244,Khadpoli,,5/24/2017,7/31/2018,Ratnagiri,Maharashtra,Gram Panchayat,Domestic,17.51648464,73.59736559,,Offline
245,Khaga,,1/4/2017,4/3/2017,Fatehpur,Uttar Pradesh,Gram Panchayat,Domestic,25.77195143,81.11057515,,Offline
246,Khardah,,12/16/2014,11/16/2015,Kolkata,West Bengal,State Capital,Domestic,22.71308039,88.37930228,,Offline
247,Khed Ratnagiri,,4/9/2017,12/31/2018,Ratnagiri,Maharashtra,Other Municipal Area,Domestic,17.72629055,73.40653707,,
248,Khindaura,,8/16/2016,12/31/2018,Sitapur,Uttar Pradesh,Gram Panchayat,Domestic,27.28494392,81.02379931,,
249,Khutehna,,1/2/2018,4/10/2018,Bahraich,Uttar Pradesh,Gram Panchayat,Domestic,27.46634038,81.73652139,,Offline
250,Kirti Nagar ,,10/5/2015,12/31/2018,Akola,Maharashtra,District Headquarters,Domestic,20.69565165,77.01627657,,
251,Kondhanpur,,10/30/2014,12/31/2018,Pune,Maharashtra,Gram Panchayat,Domestic,18.34805063,73.79407913,,
252,Kotanka,,11/5/2014,12/31/2018,Anantpur,Andhra Pradesh,Gram Panchayat,Domestic,14.77188643,77.49890436,,
253,Kothi Bazar Hoshangabad,,4/2/2017,12/31/2018,Hoshangabad,Madhya Pradesh,District Headquarters,Domestic,22.75431779,77.73037436,,
254,Kotwa Dham,,4/22/2018,8/8/2018,Barabanki,Uttar Pradesh,Gram Panchayat,Domestic,26.98615473,81.51376795,,Offline
255,Kovvur,,2/2/2016,5/29/2018,East Godavari,Andhra Pradesh,Other Municipal Area,Domestic,17.01344309,81.72812678,,
256,Kuchera,,12/19/2016,2/20/2017,Faizabad,Uttar Pradesh,Gram Panchayat,Domestic,26.65119357,81.99324821,,Offline
257,Kumarheda,,1/4/2017,7/25/2018,Saharanpur,Uttar Pradesh,Gram Panchayat,Domestic,29.9664805,77.61926933,,Offline
258,Kund Colony Gopeshwar,,11/11/2016,2/11/2018,Chamoli,Uttarakhand,Other Municipal Area,Non Domestic,30.41485295,79.31927836,,
259,Kundapur ,,1/6/2015,10/22/2016,Udupi,Karnataka,Other Municipal Area,Domestic,13.62373506,74.69346978,,Offline
260,Kurmaura,,11/17/2017,6/17/2018,Bahraich,Uttar Pradesh,Gram Panchayat,Domestic,27.17463008,81.60360123,,
261,Kuthappakkam Cuddalore,,4/28/2018,7/8/2018,Cuddalore,Tamil Nadu,Other Municipal Area,Domestic,11.74985661,79.73353919,,
262,Lajpat Nagar,,4/7/2015,12/31/2018,South Delhi,Delhi,State Capital,Non Domestic,28.56885994,77.24254045,,
263,Lalpur Chowk,,9/3/2017,10/22/2018,Hazaribagh,Jharkhand,District Headquarters,Domestic,23.99485088,85.36535435,,
264,Loha Mandi Jhansi ,,1/2/2017,6/21/2017,Jhansi,Uttar Pradesh,District Headquarters,Domestic,25.45554671,78.56863171,,Offline
265,Lokgram,,9/8/2015,9/18/2017,Kalyan,Maharashtra,Other Municipal Area,Domestic,19.22827285,73.12538943,,Offline
266,Madhal,,5/28/2017,7/17/2018,Ratnagiri,Maharashtra,Gram Panchayat,Non Domestic,17.45448801,73.3485993,,
267,Mahabubnagar,,3/5/2017,12/31/2018,Raichur,Karnataka,District Headquarters,Non Domestic,16.21915339,77.35209598,,
268,Mahasi,,2/21/2018,12/31/2018,Bahraich,Uttar Pradesh,Gram Panchayat,Domestic,27.56342247,81.4125694,,
269,Mahawan,,1/3/2017,1/31/2017,Faizabad,Uttar Pradesh,Gram Panchayat,Domestic,26.71055754,82.13411848,,
270,Mahishi,,3/22/2016,8/11/2017,Saharsa,Bihar,Gram Panchayat,Domestic,25.85432828,86.46970867,,Offline
271,Mahpura,,3/2/2016,9/22/2017,Saharsa,Bihar,Gram Panchayat,Domestic,25.83292159,86.45290734,,Offline
272,Malakhedi road Hoshangabad,,4/1/2017,12/1/2018,Hoshangabad,Madhya Pradesh,District Headquarters,Non Domestic,22.7486164,77.75456385,,
273,Malakhedi,,4/1/2017,12/31/2018,Hoshangabad,Madhya Pradesh,Gram Panchayat,Domestic,22.7486164,77.75456385,,
274,Malcha Marg,,4/7/2015,12/31/2018,Central Delhi,Delhi,State Capital,Non Domestic,28.60169307,77.1860531,,
275,Mallapur ,,10/19/2015,1/1/2017,Hyderabad,Telangana,Gram Panchayat,Domestic,17.44395822,78.5805662,,Offline
276,Malsi,,11/24/2016,10/23/2017,Chamoli,Uttarakhand,Gram Panchayat,Domestic,30.12516663,79.27515014,,Offline
277,Malwada,,8/1/2016,12/31/2018,Palghar,Maharashtra,Gram Panchayat,Non Domestic,19.73234528,73.15178733,,
278,Mandideep,,12/16/2014,7/24/2018,Bhopal,Madhya Pradesh,Other Municipal Area,Non Domestic,23.09785035,77.51004172,,
279,Mandir Marg Gopeshwar ,,12/12/2016,10/23/2017,Chamoli,Uttarakhand,Other Municipal Area,Domestic,30.40719017,79.31941145,,Offline
280,Mandwa,,6/12/2016,9/28/2016,Udaipur,Rajasthan,Gram Panchayat,Domestic,24.54602531,73.14407264,,Offline
281,Mangulam Pattabiram,,2/26/2018,5/28/2018,Thiruvallur,Tamil Nadu,State Capital,Domestic,13.12718165,80.06590418,,
282,Manjakuppam Cuddalore,,1/12/2018,5/10/2018,Cuddalore,Tamil Nadu,District Headquarters,Domestic,11.76097948,79.76562057,,
283,Manoj Market,,3/2/2016,8/3/2018,Saharsa,Bihar,District Headquarters,Non Domestic,25.87861055,86.59949303,,
284,Mansarovar,,11/24/2015,6/12/2017,Jaipur,Rajasthan,State Capital,Domestic,26.85385704,75.75888966,,Offline
285,Manwan,,8/14/2016,12/31/2018,Sitapur,Uttar Pradesh,Gram Panchayat,Domestic,27.56419826,80.68044475,,
286,MarenHalli,,8/20/2015,5/4/2017,Bengaluru Urban,Karnataka,State Capital,Domestic,12.91546532,77.58870321,,Offline
287,Marol,,5/31/2015,12/31/2018,Mumbai Suburban,Maharashtra,State Capital,Domestic,19.11618272,72.88149692,,
288,Maruti Vethika Road,,1/7/2015,12/18/2015,Udupi,Karnataka,District Headquarters,Non Domestic,13.33180259,74.74674672,,Offline
289,Masvanpur,,8/6/2015,12/31/2018,Kanpur,Uttar Pradesh,District Headquarters,Domestic,26.48267994,80.26221499,,
290,Mathana ,,10/13/2015,10/18/2016,Kurukshetra,Haryana,Gram Panchayat,Domestic,29.97997013,76.95497462,,Offline
291,Mathura Bazar 1,,9/6/2017,5/29/2018,Balrampur,Uttar Pradesh,Gram Panchayat,Domestic,27.41420246,82.20215377,,
292,Mau Ranipur,,1/3/2017,5/31/2017,Jhansi,Uttar Pradesh,Gram Panchayat,Domestic,25.25152486,79.15103261,,
293,Mau Rural,,1/2/2017,8/3/2017,Jhansi,Uttar Pradesh,Gram Panchayat,Domestic,25.26020026,79.12046893,,Offline
294,Mavli,,6/7/2016,12/31/2018,Udaipur,Rajasthan,Gram Panchayat,Domestic,24.78857098,73.97692311,,
295,Mayur Vihar (III),,6/11/2015,8/3/2016,East Delhi,Delhi,State Capital,Domestic,28.61471323,77.33278712,,Offline
296,MCECHS Layout ,,4/21/2015,6/12/2017,Bengaluru Urban,Karnataka,State Capital,Domestic,13.07110596,77.62856324,,Offline
297,Medilalpurva Baharaich,,12/1/2017,6/1/2018,Bahraich,Uttar Pradesh,Gram Panchayat,Domestic,27.72316945,81.49361491,,
298,Meerpet ,,10/10/2015,4/6/2017,Rangareddy,Telangana,State Capital,Domestic,17.32239317,78.53172208,,
299,Meerut Road Ghaziabad,,3/7/2017,10/30/2018,Ghaziabad,Uttar Pradesh,District Headquarters,Non Domestic,28.74899089,77.48969108,,
300,Menar,,6/7/2016,10/18/2016,Udaipur,Rajasthan,Gram Panchayat,Domestic,24.59223764,74.10415627,,Offline
301,MG Road Ghaziabad,,1/13/2016,12/31/2018,Hapur,Uttar Pradesh,District Headquarters,Non Domestic,28.64535696,77.24395085,,
302,MG Road Panjim,,2/1/2016,11/27/2017,North Goa,Goa,State Capital,Non Domestic,15.50054786,73.82987071,,Offline
303,MIDC Ambad ,,11/23/2015,5/4/2018,Nashik,Maharashtra,District Headquarters,Non Domestic,19.95323787,73.73381515,,Offline
304,MIDC Awadhan,,8/31/2015,8/19/2016,Dhule,Maharashtra,District Headquarters,Non Domestic,20.84557443,74.75540889,,Offline
305,MIDC,,11/24/2014,6/23/2018,Akola,Maharashtra,District Headquarters,Non Domestic,20.68151603,77.05537099,,Offline
306,Mihinpurwa,,11/16/2017,12/31/2018,Bahraich,Uttar Pradesh,Gram Panchayat,Domestic,28.06760757,81.2535122,,
307,Milkipur,,1/6/2017,3/23/2017,Faizabad,Uttar Pradesh,Gram Panchayat,Domestic,26.59239104,81.90789966,,
308,Miramar Panjim,,2/3/2016,1/29/2017,North Goa,Goa,State Capital,Domestic,15.47760661,73.81284867,,Offline
309,Mohipura ,,9/16/2015,3/29/2016,Barwani,Madhya Pradesh,Gram Panchayat,Agriculture,22.06838831,75.11096222,,Offline
310,Mohipura Farm,,11/11/2015,10/28/2016,Barwani,Madhya Pradesh,Gram Panchayat,Agriculture,22.06838831,75.11096222,,Offline
311,Mohol,,10/29/2014,12/31/2018,Solapur,Maharashtra,Gram Panchayat,Domestic,17.80872823,75.63894889,,
312,Moth,,12/30/2016,10/27/2018,Jhansi,Uttar Pradesh,Gram Panchayat,Domestic,25.73128313,78.95116389,,Offline
313,Mudur ,,1/9/2015,5/19/2018,Udupi,Karnataka,Gram Panchayat,Domestic,13.80759804,74.87390303,,Offline
314,Mughalsarai ,,8/31/2015,8/2/2016,Chandauli,Uttar Pradesh,District Headquarters,Domestic,25.28150515,83.11870732,,Offline
315,Mukimpur,,8/12/2016,3/12/2018,Sitapur,Uttar Pradesh,Gram Panchayat,Domestic,27.25075327,80.85519513,,Offline
316,Mukundapur Kolkata,,4/5/2018,12/31/2018,Kolkata,West Bengal,State Capital,Domestic,22.49347437,88.41301567,,
317,Muradpur ,,10/12/2017,11/15/2018,Sitapur,Uttar Pradesh,Gram Panchayat,Domestic,27.60418434,80.62787822,,
318,Nai Basti Bahraich,,11/14/2017,12/31/2018,Bahraich,Uttar Pradesh,District Headquarters,Domestic,28.2812349,81.1272525,,
319,Naipura,,12/16/2017,9/4/2018,Barabanki,Uttar Pradesh,Gram Panchayat,Domestic,26.93846546,81.19729659,,
320,Nakre,,1/7/2015,4/19/2018,Udupi,Karnataka,Gram Panchayat,Domestic,13.33138499,74.74803419,,
321,Nandamuri Nagar,,3/1/2015,10/17/2017,Anantapur,Andhra Pradesh,District Headquarters,Non Domestic,14.67885861,77.56547934,,Offline
322,Nanegaon,,11/9/2014,11/30/2017,Pune,Maharashtra,Gram Panchayat,Agriculture,18.55094818,73.58012998,,
323,Narapally ,,1/18/2016,3/11/2017,Hyderabad,Telangana,State Capital,Domestic,17.4292017,78.62330504,,
324,Navalpura ,,9/15/2015,12/26/2018,Barwani,Madhya Pradesh,Other Municipal Area,Domestic,22.0382913,74.90196945,,
325,Nazirpura,,1/5/2018,12/31/2018,Bahraich,Uttar Pradesh,District Headquarters,Domestic,27.57041911,81.5851872,,
326,Nehru Nagar,,8/31/2015,11/20/2015,Chandauli,Uttar Pradesh,Other Municipal Area,Domestic,25.26237322,83.26196884,,Offline
327,Nerul,,2/17/2016,7/8/2018,North Goa,Goa,Gram Panchayat,Domestic,15.5095113,73.79150573,,
328,Netaji Nagar,,2/15/2016,12/31/2018,Chennai,Tamil Nadu,State Capital,Domestic,13.13121087,80.27937941,,
329,Nildoh,,10/13/2015,7/31/2016,Nagpur,Maharashtra,District Headquarters,Domestic,21.10965634,78.98795427,,Offline
330,Nilje,,12/16/2015,6/8/2018,Dombivali,Maharashtra,Other Municipal Area,Domestic,19.15801697,73.08715902,,
331,Nimgaon Ketki ,,10/30/2014,3/8/2016,Pune,Maharashtra,Gram Panchayat,Domestic,18.08430183,74.91632929,,Offline
332,Nippani,,6/27/2016,12/31/2018,Belgaum,Karnataka,Other Municipal Area,Non Domestic,16.41293923,74.38038666,,
333,Nurwaf Mohalla Tikaitnagar,,1/26/2018,12/31/2018,Barabanki,Uttar Pradesh,Other Municipal Area,Domestic,26.93900101,81.19437835,,
334,Nyas Colony Hoshangabad,,4/2/2017,12/31/2018,Hoshangabad,Madhya Pradesh,District Headquarters,Domestic,22.6201312,77.76999589,,
335,Okni,,3/29/2018,12/30/2018,Hazaribagh,Jharkhand,District Headquarters,Domestic,24.00030834,85.35222013,,
336,Om Shanti Nagar Jhansi,,1/3/2017,12/31/2018,Jhansi,Uttar Pradesh,District Headquarters,Domestic,25.4612246,78.58916695,,
337,Oriya,,5/21/2017,3/29/2018,Hazaribagh,Jharkhand,Gram Panchayat,Domestic,23.98303467,85.40358393,,
338,Ozar,,5/13/2018,7/15/2018,Nashik,Maharashtra,Gram Panchayat,Non Domestic,20.10242343,73.93613737,,
339,Pabal,,10/30/2014,12/31/2018,Pune,Maharashtra,Gram Panchayat,Domestic,18.83120008,74.05244874,,
340,Pachmori,,11/5/2014,6/2/2018,Akola,Maharashtra,Gram Panchayat,Non Domestic,20.70168093,77.02543736,,
341,Pahadpur,,2/20/2018,10/18/2018,Sitapur,Uttar Pradesh,Gram Panchayat,Domestic,27.49269748,80.73719433,,
342,Paigwa,764,12/20/2017,12/31/2018,Barabanki,Uttar Pradesh,Gram Panchayat,Domestic,27.09285987,81.21678566,Y,
343,Paisar Barabanki,,12/18/2017,12/31/2018,Barabanki,Uttar Pradesh,District Headquarters,Domestic,26.92593986,81.20634685,,
344,Palghar Town,,8/1/2016,12/31/2018,Palghar,Maharashtra,District Headquarters,Non Domestic,19.69424812,72.7650437,,
345,Palhari Barabanki,,12/27/2017,12/31/2018,Barabanki,Uttar Pradesh,District Headquarters,Domestic,26.9202864,81.22103776,,
346,Panchavati,,6/12/2016,6/12/2017,Udaipur,Rajasthan,District Headquarters,Non Domestic,24.60282837,73.6885581,,Offline
347,Pandeypur,,8/31/2015,2/9/2018,Varanasi,Uttar Pradesh,District Headquarters,Domestic,25.35779612,82.99710418,,Offline
348,Panki CF,,12/16/2014,11/14/2017,Kanpur,Uttar Pradesh,District Headquarters,Non Domestic,26.48198323,80.2442303,,Offline
349,Panki,,12/16/2014,10/23/2017,Kanpur,Uttar Pradesh,District Headquarters,Non Domestic,26.48198323,80.2442303,,Offline
350,Parai,,6/12/2016,5/10/2017,Udaipur,Rajasthan,Gram Panchayat,Non Domestic,24.18693586,73.68898834,,
351,Patan,,2/14/2018,4/9/2018,Palamu,Jharkhand,Other Municipal Area,Domestic,24.20221298,84.17861747,,
352,Patel Nagar Fatehpur ,,1/3/2017,2/17/2018,Fatehpur,Uttar Pradesh,District Headquarters,Domestic,25.92136536,80.81954853,,Offline
353,Patharikuppam,,4/28/2018,12/31/2018,Cuddalore,Tamil Nadu,Gram Panchayat,Domestic,11.74811899,79.73552234,,
354,Pathauli,,12/28/2016,12/31/2018,Agra,Uttar Pradesh,Gram Panchayat,Domestic,27.16058568,77.93391097,,
355,Patrakar Colony,,9/5/2015,12/31/2018,Dhule,Maharashtra,District Headquarters,Domestic,20.9022309,74.76387223,,
356,Paud,,10/28/2014,12/31/2018,Pune,Maharashtra,Gram Panchayat,Domestic,18.52445709,73.6126899,,
357,PEG (Kothrud),137,10/22/2014,12/31/2018,Pune,Maharashtra,District Headquarters,Non Domestic,18.52307392,73.85294087,Y,
358,Periyar Street Chidambaram,,4/30/2018,12/31/2018,Cuddalore,Tamil Nadu,Other Municipal Area,Domestic,11.40091365,79.68546278,,
359,Pichhodi ,,9/14/2015,9/3/2017,Barwani,Madhya Pradesh,Gram Panchayat,Agriculture,21.69356496,74.95438324,,Offline
360,Pimplekhuta ,,11/24/2014,5/10/2016,Akola,Maharashtra,Gram Panchayat,Non Domestic,19.72685999,77.19559707,,Offline
361,Pimpri-Chinchwad,,10/29/2014,12/31/2018,Pune,Maharashtra,Other Municipal Area,Non Domestic,18.6406603,73.79110991,,
362,Pitampura,,6/6/2015,9/28/2018,North West Delhi,Delhi,State Capital,Domestic,28.70367187,77.12672014,,
363,Prem Nagar Jhansi,,1/4/2017,3/12/2018,Jhansi,Uttar Pradesh,District Headquarters,Domestic,25.4233168,78.53392789,,
364,Prithvi Avenue,439,5/20/2016,12/31/2018,Chennai,Tamil Nadu,State Capital,Domestic,13.03043473,80.25414722,Y,
365,Professor Colony,,9/5/2015,5/23/2018,Dhule,Maharashtra,District Headquarters,Domestic,20.91335246,74.77244767,,
366,Puraini,,11/7/2017,10/11/2018,Bahraich,Uttar Pradesh,Gram Panchayat,Domestic,27.2864325,81.58837827,,
367,Purnanagar,,9/18/2017,10/2/2018,Giridih,Jharkhand,Gram Panchayat,Domestic,24.12235072,86.31089342,,Offline
368,Puthagaram Chennai,,4/11/2018,12/5/2018,Thiruvallur,Tamil Nadu,State Capital,Domestic,13.12051966,80.18972049,,
369,PWD Guest house road Gairsain,,11/24/2016,12/31/2018,Chamoli,Uttarakhand,District Headquarters,Domestic,30.05185878,79.28891312,,
370,Qazipura,,12/8/2017,2/23/2018,Bahraich,Uttar Pradesh,District Headquarters,Domestic,27.57594162,81.5895957,,Offline
371,Radgaon MIDC Ratnagiri,,5/24/2017,12/31/2018,Ratnagiri,Maharashtra,District Headquarters,Non Domestic,16.99491819,73.32439433,,
372,Rahul Nagar Bhopal,,4/14/2017,12/2/2018,Bhopal,Madhya Pradesh,District Headquarters,Domestic,23.09319908,77.52903704,,
373,Raibaug,,5/17/2016,11/23/2017,Belgaum,Karnataka,Gram Panchayat,Domestic,16.48955736,74.77307617,,Offline
374,Raj Nagar,,11/23/2016,12/31/2018,Ghaziabad,Uttar Pradesh,District Headquarters,Domestic,28.68252029,77.44597752,,
375,Raja Bazar Nanpara,,1/12/2018,12/31/2018,Bahraich,Uttar Pradesh,Other Municipal Area,Domestic,27.86565607,81.50277643,,
376,Rajaji Nagar,,8/12/2015,12/31/2018,Bengaluru Urban,Karnataka,State Capital,Domestic,12.99482993,77.55242138,,
377,Rajendra Gunj Raichur,,1/22/2018,12/31/2018,Raichur,Karnataka,District Headquarters,Domestic,16.2301925,77.36033372,,
378,Ram Bagh Agra,,12/28/2016,3/31/2017,Agra,Uttar Pradesh,District Headquarters,Domestic,27.20766685,78.03983,,
379,Ram Nagar,,6/12/2016,9/5/2016,Udaipur,Rajasthan,District Headquarters,Domestic,24.34994832,73.73935461,,Offline
380,Ramesh Nagar,,3/24/2016,12/31/2018,Bengaluru Urban,Karnataka,State Capital,Domestic,12.95871838,77.679547,,
381,Ramganj,,12/15/2015,6/12/2017,Jaipur,Rajasthan,State Capital,Non Domestic,26.91976711,75.83174848,,Offline
382,Ramuapur Mahmoodabad,,11/3/2017,8/18/2018,Sitapur,Uttar Pradesh,Other Municipal Area,Domestic,27.56123129,80.68095973,,
383,Rani Chennamma Nagar,,6/9/2016,6/6/2017,Belgaum,Karnataka,District Headquarters,Domestic,15.82732121,74.48969111,,Offline
384,Ranikhet road Gairsain ,,11/24/2016,5/15/2017,Chamoli,Uttarakhand,District Headquarters,Non Domestic,30.4842943,79.61679942,,Offline
385,Rano Pali,,12/16/2016,2/4/2017,Faizabad,Uttar Pradesh,Other Municipal Area,Domestic,26.78711011,82.18811625,,Offline
386,Rasuliya Hoshangabad,,4/1/2017,4/10/2017,Hoshangabad,Madhya Pradesh,District Headquarters,Domestic,22.73477556,77.72483934,,
387,Razole Village,,3/6/2016,12/6/2016,East Godavari,Andhra Pradesh,Gram Panchayat,Domestic,16.47702212,81.83956578,,
388,Refugee Colony,,3/2/2016,5/31/2017,Saharsa,Bihar,District Headquarters,Domestic,25.87523937,86.58178715,,
389,Renuka Nagar ,,10/2/2015,12/31/2018,Akola,Maharashtra,District Headquarters,Domestic,20.70650095,76.97871016,,
390,Retteri Chennai,,1/15/2018,6/15/2018,Chennai,Tamil Nadu,District Headquarters,Domestic,13.14345925,80.21146433,,
391,Rishibhumi Risia,,11/17/2017,12/31/2018,Bahraich,Uttar Pradesh,Other Municipal Area,Domestic,27.57413477,81.60198331,,
392,Sadar,,10/13/2015,12/31/2018,Nagpur,Maharashtra,District Headquarters,Domestic,21.16422385,79.07308303,,
393,Sadashiv Nagar,,5/30/2016,12/31/2018,Belgaum,Karnataka,District Headquarters,Domestic,15.8765877,74.50630578,,
394,Sahadatganj Faizabad,,6/7/2017,7/15/2017,Faizabad,Uttar Pradesh,District Headquarters,Domestic,26.76785353,82.11276038,,
395,Sahakar Marg,,12/15/2015,4/28/2017,Jaipur,Rajasthan,State Capital,Domestic,26.89096564,75.7943418,,
396,Sahakarnagar,119,11/13/2014,12/31/2018,Pune,Maharashtra,District Headquarters,Domestic,18.47902626,73.85205541,Y,
397,Saharsa Basti ,,3/2/2016,9/27/2016,Saharsa,Bihar,District Headquarters,Domestic,25.87868698,86.59957886,,Offline
398,Sahastradhara road,,11/24/2016,3/14/2017,Dehradun,Uttarakhand,State Capital,Domestic,30.35436746,78.09554277,,Offline
399,Sahdipur,,10/11/2017,12/31/2018,Sitapur,Uttar Pradesh,Gram Panchayat,Domestic,27.66678036,80.75108111,,
400,Saheed Nagar Bhubaneswar,749,3/6/2018,12/31/2018,Khordha,Odisha,State Capital,Domestic,20.28874514,85.84846335,Y,
401,Sahibabad Industrial Area,,1/13/2016,10/31/2017,Ghaziabad,Uttar Pradesh,District Headquarters,Non Domestic,28.68066031,77.34718829,,Offline
402,Sai,,1/14/2017,1/2/2018,Fatehpur,Uttar Pradesh,Gram Panchayat,Domestic,25.92283138,80.81817524,,
403,Sainikpuri,,11/29/2015,12/31/2018,Hyderabad,Telangana,State Capital,Domestic,17.49662598,78.56243799,,
404,Salaiya Bhopal,,4/1/2017,12/31/2018,Bhopal,Madhya Pradesh,District Headquarters,Domestic,23.1658681,77.44220119,,
405,Salgaon,,5/29/2017,3/28/2018,Hazaribagh,Jharkhand,District Headquarters,Domestic,23.99459337,85.31463521,,
406,Saliyana Gairsain,,11/24/2016,3/12/2018,Chamoli,Uttarakhand,Gram Panchayat,Domestic,30.48433368,79.56186778,,
407,Samariya,,11/10/2017,4/25/2018,Bahraich,Uttar Pradesh,Gram Panchayat,Domestic,27.5749337,81.60176874,,Offline
408,Samata Nagar ,,11/2/2015,11/23/2016,Dhule,Maharashtra,District Headquarters,Domestic,20.87200941,74.76622135,,Offline
409,Samneghat,,11/1/2015,1/1/2016,Varanasi,Uttar Pradesh,District Headquarters,Domestic,25.27521846,83.01062681,,Offline
410,Samta Colony _Raipur,,5/18/2016,12/31/2018,Raipur,Chhattisgarh,State Capital,Domestic,21.24513803,81.61616194,,
411,Sancole,,1/30/2016,11/15/2018,South Goa,Goa,Other Municipal Area,Non Domestic,15.38494264,73.87307776,,Offline
412,Sangoni Kalan,,3/31/2017,5/24/2018,Bhopal,Madhya Pradesh,Gram Panchayat,Non Domestic,23.24634905,77.53322123,,Offline
413,Sanjay Nagar,,9/2/2015,9/4/2017,Chandauli,Uttar Pradesh,District Headquarters,Domestic,25.26037383,83.25397963,,Offline
414,Santacruz,,9/6/2015,6/12/2017,Mumbai,Maharashtra,State Capital,Domestic,19.08510764,72.83627274,,Offline
415,Saraidih,,5/18/2017,12/31/2017,Palamu,Jharkhand,Gram Panchayat,Domestic,24.31436381,84.30889244,,
416,Sarang Talab ,,8/30/2015,7/27/2017,Varanasi,Uttar Pradesh,District Headquarters,Domestic,25.35040618,83.00657758,,Offline
417,Saraswati Nagar Risiya,,11/20/2017,12/31/2018,Bahraich,Uttar Pradesh,Other Municipal Area,Domestic,27.5574939,81.58532876,,
418,Sariya,,5/13/2017,10/2/2018,Giridih,Jharkhand,Gram Panchayat,Domestic,24.18566969,85.89244786,,Offline
419,Sarnath ,,8/31/2015,7/15/2016,Varanasi,Uttar Pradesh,Gram Panchayat,Domestic,25.37320631,83.02144427,,Offline
420,Sarsa,,5/29/2018,7/10/2018,Bahraich,Uttar Pradesh,Gram Panchayat,Domestic,27.46186394,81.71920343,,Offline
421,Sarwangi Mohalla Tikaitnagar,,4/22/2018,12/31/2018,Barabanki,Uttar Pradesh,Other Municipal Area,Domestic,26.93887969,81.19674639,,
422,Saswad,,10/31/2014,8/6/2018,Pune,Maharashtra,Other Municipal Area,Domestic,18.35003101,74.03204172,,
423,SavariyaPani,,9/21/2015,3/3/2016,Barwani,Madhya Pradesh,Gram Panchayat,Domestic,22.03761833,74.90402428,,Offline
424,Sector 3,,8/25/2015,12/31/2018,Kurukshetra,Haryana,District Headquarters,Domestic,29.96258916,76.89098195,,
425,Sector 9,,8/26/2015,12/31/2018,Chandigarh,Chandigarh,State Capital,Non Domestic,30.74711954,76.79416745,,
426,Sector 28 ,,8/26/2015,12/31/2018,Chandigarh,Chandigarh,State Capital,Domestic,30.71698654,76.80399014,,
427,Sector 37,,8/26/2015,12/31/2018,Chandigarh,Chandigarh,State Capital,Non Domestic,30.73844752,76.75038474,,
428,Sector 56,,10/28/2014,6/12/2017,Gurgaon,Haryana,District Headquarters,Domestic,28.42442612,77.1004888,,Offline
429,Sector 70,269,8/27/2015,12/31/2018,Sahibzada Ajit Singh Nagar,Punjab,District Headquarters,Domestic,30.6977017,76.71460946,Y,
430,Shahabganj ,,11/1/2015,5/4/2018,Chandauli,Uttar Pradesh,Gram Panchayat,Domestic,25.09651918,83.26670079,,
431,Shakurpur,,10/31/2014,11/2/2018,West Delhi,Delhi,State Capital,Domestic,28.68715204,77.14107106,,Offline
432,Shaniwarpeth,,10/31/2014,12/31/2018,Pune,Maharashtra,District Headquarters,Domestic,18.51872928,73.85150036,,
433,Sharda Nagar Faizabad,,1/5/2017,6/18/2017,Faizabad,Uttar Pradesh,District Headquarters,Domestic,26.76006844,82.12532771,,
434,Shastri Nagar,,8/6/2015,4/10/2017,Kanpur,Uttar Pradesh,District Headquarters,Non Domestic,26.46462607,80.30289581,,Offline
435,Shingave,,6/24/2018,12/31/2018,Nashik,Maharashtra,Gram Panchayat,Non Domestic,19.7978385,74.55609799,,
436,Shirva ,,1/7/2015,1/22/2016,Udupi,Karnataka,Gram Panchayat,Domestic,13.21637453,74.8258241,,Offline
437,Shiv Colony,,8/26/2015,12/31/2018,Nashik,Maharashtra,District Headquarters,Domestic,19.96149368,73.78261998,,
438,Shiv Mandir ,,9/21/2015,12/31/2018,Dombivali,Maharashtra,Other Municipal Area,Domestic,19.20924525,73.10052497,,
439,Shivaji Nagar,,6/7/2016,12/31/2018,Belgaum,Karnataka,District Headquarters,Domestic,15.8706654,74.52325322,,
440,Shivdaspura,,9/10/2015,10/14/2017,Jaipur,Rajasthan,Gram Panchayat,Non Domestic,26.70930131,75.89586662,,Offline
441,Shivpur,,9/23/2015,10/24/2017,Varanasi,Uttar Pradesh,Gram Panchayat,Domestic,25.35725839,82.95550559,,Offline
442,Shyam Nagar Bhopal,,4/8/2017,12/31/2018,Bhopal,Madhya Pradesh,District Headquarters,Domestic,23.1920071,77.39694737,,
443,Siddhapura ,,12/15/2014,5/7/2016,Udupi,Karnataka,Other Municipal Area,Domestic,13.33180254,74.74700422,,Offline
444,Sidhauli Town,,7/8/2016,12/31/2018,Sitapur,Uttar Pradesh,Other Municipal Area,Domestic,27.2773774,80.83884062,,
445,Sikandarabad ,,10/17/2017,10/6/2018,Sitapur,Uttar Pradesh,Gram Panchayat,Domestic,27.95413888,80.49116187,,
446,Sikandra Agra,,12/27/2016,12/31/2018,Agra,Uttar Pradesh,District Headquarters,Domestic,27.21332243,77.94311909,,
447,Sindur Siyari,,5/21/2017,11/28/2018,Hazaribagh,Jharkhand,Gram Panchayat,Domestic,23.99289627,85.36297463,,
448,SirsiRoad ,,12/15/2015,7/28/2018,Jaipur,Rajasthan,State Capital,Domestic,26.91025371,75.68346579,,
449,Sonarpura Varanasi ,,4/28/2017,11/29/2017,Varanasi,Uttar Pradesh,District Headquarters,Domestic,25.29887727,83.00498373,,Offline
450,Spurtank Road,,11/30/2014,4/21/2015,Chennai,Tamil Nadu,State Capital,Domestic,13.07076021,80.24739908,,Offline
451,Sri Ram Rang Pura,570,3/23/2017,12/31/2018,Bellary,Karnataka,Gram Panchayat,Non Domestic,12.26868675,76.62715736,Y,
452,Srirampura,212,12/19/2014,12/31/2018,Bengaluru Urban,Karnataka,State Capital,Non Domestic,12.99011628,77.56579047,Y,
453,Subhash road Ratnagiri,,5/24/2017,12/31/2018,Ratnagiri,Maharashtra,District Headquarters,Non Domestic,16.99871484,73.29380803,,
454,Sudna,,5/8/2017,6/28/2017,Daltonganj,Jharkhand,District Headquarters,Domestic,24.05570562,84.07135775,,
455,Sulindabad,,3/2/2016,9/15/2016,Saharsa,Bihar,Gram Panchayat,Domestic,25.85149503,86.60188842,,Offline
456,Sumerpur,,11/24/2016,12/31/2018,Chamoli,Uttarakhand,Gram Panchayat,Domestic,30.01514624,79.30920404,,
457,Sundarpur ,,8/30/2015,8/23/2017,Varanasi,Uttar Pradesh,District Headquarters,Domestic,25.28611765,82.97921615,,Offline
458,Supa ,,10/30/2014,3/16/2018,Pune,Maharashtra,Gram Panchayat,Domestic,18.33495247,74.37747361,,Offline
459,Surakalpeth Cuddalore,,1/15/2018,8/29/2018,Cuddalore,Tamil Nadu,District Headquarters,Domestic,11.75108375,79.76383402,,
460,Swaroop Nagar ,,8/6/2015,2/27/2016,Kanpur,Uttar Pradesh,District Headquarters,Domestic,26.48391994,80.31563726,,Offline
461,T Nagar Chennai,,12/14/2017,12/31/2018,Kancheepuram,Tamil Nadu,State Capital,Domestic,13.04278157,80.2364651,,
462,Taj East Gate Road Agra ,,12/27/2016,6/25/2017,Agra,Uttar Pradesh,District Headquarters,Non Domestic,27.16477194,78.05755628,,Offline
463,Takia Jarwal Kasba,,11/28/2017,12/31/2018,Bahraich,Uttar Pradesh,Other Municipal Area,Domestic,27.16486199,81.53894533,,
464,Talegaon,,10/31/2014,12/31/2018,Pune,Maharashtra,Other Municipal Area,Domestic,18.73078792,73.68054382,,
465,Tap Sipaha,,12/5/2017,12/31/2018,Barabanki,Uttar Pradesh,Gram Panchayat,Domestic,27.08384365,81.50595177,,
466,Tapadiya Nagar ,,11/11/2015,2/28/2018,Akola,Maharashtra,District Headquarters,Domestic,20.71856971,77.01140888,,
467,Tarinpur Sitapur,,10/14/2017,11/5/2018,Sitapur,Uttar Pradesh,District Headquarters,Domestic,27.57422287,80.6661764,,
468,Tarnaka,,10/29/2014,12/31/2018,Hyderabad,Telangana,State Capital,Domestic,17.42639703,78.53799481,,
469,Tarun Nagar,,12/16/2016,12/31/2018,Guwahati,Assam,State Capital,Domestic,26.16351084,91.77615552,,
470,Tedwadih,,7/6/2016,8/14/2018,Sitapur,Uttar Pradesh,Gram Panchayat,Domestic,27.56320917,80.68070226,,
471,Thana,,6/12/2016,4/16/2017,Udaipur,Rajasthan,Gram Panchayat,Agriculture,24.6063798,73.69937465,,Offline
472,Thandeswaranallur,,4/27/2018,12/31/2018,Cuddalore,Tamil Nadu,Gram Panchayat,Domestic,11.38623104,79.68356841,,
473,Thangaon,,8/1/2016,12/31/2018,Sitapur,Uttar Pradesh,Gram Panchayat,Domestic,27.45612644,81.24770093,,
474,Thendral Nagar Avadi,,4/18/2018,6/7/2018,Thiruvallur,Tamil Nadu,State Capital,Domestic,13.11249097,80.07098847,,
475,Theradi Kadai Street Chidambaram,,4/27/2018,12/31/2018,Cuddalore,Tamil Nadu,Other Municipal Area,Non Domestic,11.39970811,79.69653564,,
476,Thiruvetkalam,,4/27/2018,12/31/2018,Chidambaram,Tamil Nadu,Gram Panchayat,Domestic,11.39174408,79.71822982,,
477,Tilak Ali Ratnagiri,,5/30/2017,12/31/2018,Ratnagiri,Maharashtra,District Headquarters,Domestic,16.99546072,73.29051051,,
478,Tilak Nagar Deharadun,,4/22/2017,8/1/2018,Dehradun,Uttarakhand,State Capital,Domestic,30.32236641,78.02756997,,
479,Tilak Nagar,,12/16/2014,12/31/2018,Nagpur,Maharashtra,District Headquarters,Domestic,21.14590328,79.05901137,,
480,TNHB colony Avadi,,4/7/2018,12/31/2018,Thiruvallur,Tamil Nadu,State Capital,Domestic,13.11303949,80.10200798,,
481,Topri,,12/19/2016,6/16/2017,Saharanpur,Uttar Pradesh,Gram Panchayat,Domestic,30.05765889,77.54634803,,Offline
482,Udyambaug,,6/8/2016,11/2/2018,Belgaum,Karnataka,District Headquarters,Domestic,15.81974801,74.48942761,,Offline
483,Ulubari,,12/16/2016,3/12/2018,Guwahati,Assam,State Capital,Domestic,26.17047434,91.75527138,,
484,University ,,8/25/2015,4/3/2017,Kurukshetra,Haryana,District Headquarters,Domestic,29.95388236,76.81789494,,Offline
485,University Quarter,,8/25/2015,3/12/2018,Kurukshetra,Haryana,District Headquarters,Domestic,29.9514904,76.81882761,,
486,Uppal,,12/9/2015,1/7/2017,Hyderabad,Telangana,State Capital,Domestic,17.40433833,78.56353639,,Offline
487,UPSIDC Site C Agra,,12/28/2016,12/31/2018,Agra,Uttar Pradesh,District Headquarters,Non Domestic,27.21251257,77.94393951,,
488,Vaishali Nagar,,12/15/2015,5/25/2016,Jaipur,Rajasthan,State Capital,Domestic,26.90679956,75.7398587,,Offline
489,Vanaparty ,,10/23/2015,8/25/2018,Warangal,Telangana,District Headquarters,Domestic,17.95681616,79.6021226,,Offline
490,Vasant Kunj,,5/22/2015,4/18/2017,South West Delhi,Delhi,State Capital,Domestic,28.52683739,77.1520799,,Offline
491,Veerangana nagar,,6/8/2017,6/29/2018,Jhansi,Uttar Pradesh,District Headquarters,Domestic,25.46055828,78.60828575,,Offline
492,Velachery Chennai,,12/15/2017,12/31/2018,Kancheepuram,Tamil Nadu,State Capital,Domestic,12.97898702,80.22101621,,
493,Vidya Nagar,,9/24/2015,1/20/2018,Hyderabad,Telangana,State Capital,Domestic,17.40617857,78.51240127,,Offline
494,Vijay Laxmi Nagar Sitapur,,2/26/2018,12/31/2018,Sitapur,Uttar Pradesh,District Headquarters,Domestic,27.5656276,80.67910366,,
495,Vijay Nagar,,10/30/2014,12/31/2018,Hyderabad,Telangana,State Capital,Domestic,17.39429481,78.45101625,,
496,Vijaylakshmipuram Ambathur,,4/7/2018,12/31/2018,Thiruvallur,Tamil Nadu,State Capital,Domestic,13.12422962,80.15413992,,
497,Vikas Nagar,,8/6/2015,12/31/2018,Kanpur,Uttar Pradesh,District Headquarters,Non Domestic,26.49298369,80.28450196,,
498,Vikas Nagar,,8/6/2015,1/10/2016,Lucknow,Uttar Pradesh,State Capital,Domestic,26.89800576,80.96425856,,Offline
499,Vinod Vihar Colony Saharanpur ,,1/4/2017,11/14/2017,Saharanpur,Uttar Pradesh,District Headquarters,Domestic,29.96391643,77.5567696,,Offline
500,VPuram,,12/26/2015,10/22/2017,Hyderabad,Telangana,State Capital,Domestic,17.3254363,78.57317564,,Offline
501,VSR Nagar Chidambaram,,4/27/2018,12/31/2018,Cuddalore,Tamil Nadu,Other Municipal Area,Domestic,11.40417555,79.68013647,,
502,VV Puram ,,9/25/2015,1/29/2017,Bengaluru Urban,Karnataka,State Capital,Domestic,12.95239718,77.57678966,,Offline
503,Waddicherla ,,10/23/2015,3/12/2018,Warangal,Telangana,District Headquarters,Domestic,17.65772118,79.24469934,,Offline
504,Wani ,914,9/3/2015,7/18/2017,Dhule,Maharashtra,Gram Panchayat,Agriculture,20.88361053,74.76213979,Y,Offline
505,Ward No 4,,3/2/2016,5/3/2016,Saharsa,Bihar,District Headquarters,Domestic,25.89401419,86.6152464,,Offline
506,West cross street Chidambaram,,2/26/2018,12/31/2018,Cuddalore,Tamil Nadu,Other Municipal Area,Non Domestic,11.40207242,79.69116258,,
507,Yadthare ,,1/6/2015,6/29/2016,Udupi,Karnataka,Gram Panchayat,Non Domestic,13.9104088,74.63142225,,Offline
508,Yelahanka ,,10/20/2015,12/31/2018,Bengaluru Urban,Karnataka,State Capital,Domestic,13.11751591,77.59940714,,
509,Yellur,,1/29/2018,12/31/2018,Belgaum,Karnataka,Gram Panchayat,Domestic,15.78057293,74.52202273,,
510,Ziniret Chowk,,6/21/2016,12/2/2016,Udaipur,Rajasthan,District Headquarters,Domestic,24.57985421,73.69376192,,Offline
511,Baldirai (E),,10/30/2017,12/31/2018,Sultanpur,Uttar Pradesh,Gram Panchayat,Domestic,26.46856501,81.89301569,,
512,Baldirai (W),,4/18/2018,12/31/2018,Sultanpur,Uttar Pradesh,Gram Panchayat,Domestic,26.46856501,81.89301569,,
513,Bikwajipur Parasin,,5/2/2017,12/31/2018,Sultanpur,Uttar Pradesh,Gram Panchayat,Domestic,26.11150736,82.6632338,,
514,Bikwajipur,,4/27/2017,12/31/2018,Sultanpur,Uttar Pradesh,Gram Panchayat,Domestic,26.25929168,82.06478227,,
515,Dhanaudi (E),,9/18/2018,12/31/2018,Sultanpur,Uttar Pradesh,Gram Panchayat,Domestic,26.25929168,82.06478227,,
516,Dhanaudi (W),,5/4/2017,12/31/2018,Sultanpur,Uttar Pradesh,Gram Panchayat,Domestic,26.25929168,82.06478227,,
517,Kharsoma (E) ,,9/1/2018,12/31/2018,Sultanpur,Uttar Pradesh,Gram Panchayat,Domestic,26.36980692,82.19009787,,
518,Kharsoma (N) Sultanpur,,12/26/2018,12/31/2018,Sultanpur,Uttar Pradesh,Gram Panchayat,Domestic,26.36980692,82.19009787,,
519,Kharsoma (S),,9/1/2018,12/31/2018,Sultanpur,Uttar Pradesh,Gram Panchayat,Domestic,26.36980692,82.19009787,,
520,Kharsoma (W) ,,9/1/2018,12/31/2018,Sultanpur,Uttar Pradesh,Gram Panchayat,Domestic,26.36980692,82.19009787,,
521,Oragadam Ambathur,,2/26/2018,12/31/2018,Thiruvallur,Tamil Nadu,State Capital,Domestic,13.13451391,80.15153182,,
522,Paraspatti (E),,9/1/2018,12/31/2018,Sultanpur,Uttar Pradesh,Gram Panchayat,Domestic,26.22408686,82.31538574,,
523,Paraspatti (W),,9/1/2018,12/31/2018,Sultanpur,Uttar Pradesh,Gram Panchayat,Domestic,26.22408686,82.31538574,,
524,Purehubba,,9/1/2018,12/31/2018,Sultanpur,Uttar Pradesh,Gram Panchayat,Domestic,26.25959975,82.06821549,,
525,Sukhbaderi,,9/1/2018,12/31/2018,Sultanpur,Uttar Pradesh,Gram Panchayat,Domestic,26.47551805,81.92078763,,
526,Tiwaripur (E),,9/1/2018,12/31/2018,Sultanpur,Uttar Pradesh,Gram Panchayat,Domestic,26.17889702,82.26594748,,
527,Tiwaripur (W),,9/1/2018,12/31/2018,Sultanpur,Uttar Pradesh,Gram Panchayat,Domestic,26.17889702,82.26594748,,
528,Uttardah,,9/1/2018,12/31/2018,Sultanpur,Uttar Pradesh,Gram Panchayat,Domestic,26.32187824,82.03788787,,
529,Sahakar Nagar,119,10/28/2014,12/26/2023,Pune,Maharashtra,,,18.48984534,73.84679158,Y,
530,Aundh,130,10/31/2014,12/26/2023,Pune,Maharashtra,,,18.55105111,73.80853932,,
531,PEG (Kothrud),137,10/22/2014,12/23/2023,Pune,Maharashtra,,,18.50166172,73.8223785,Y,
532,Ameerpet,171,1/13/2004,12/17/2023,Hyderabad,Telangana,,,17.43443761,78.45388323,Y,
533,Srirampura,212,4/13/2018,12/26/2023,Bengaluru,Karnataka,,,13.06873736,77.6148191,Y,
534,Sector 70,269,8/27/2015,7/20/2022,Sahibzada Ajit Singh Nagar,Punjab,,,30.69003032,76.70998706,Y,
535,Deopur,302,9/6/2015,10/21/2023,Dhule,Maharashtra,,,20.92002389,74.74999078,Y,
536,Prithvi Avenue,439,10/13/2021,10/13/2020,Chennai,Tamil Nadu,,,13.02986343,80.25359066,Y,
537,Bhopoli,464,8/1/2016,12/23/2020,Palghar,Maharashtra,,,19.76634446,72.98835982,Y,
538,Malwada,465,8/1/2016,12/23/2020,Palghar,Maharashtra,,,19.76116717,73.15349013,,
539,Rajdhani Masjid,499,12/16/2016,8/13/2023,Guwahati,Assam,State Capital,,26.14158989,91.78632608,,
540,Sri Ram Rang Pura,570,3/23/2017,11/15/2022,Bellary,Karnataka,,,15.28354838,76.64444763,Y,
541,Banjara Hills,673,6/2/2017,12/16/2023,Hyderabad,Telangana,,,17.4170613,78.44818246,Y,
542,Kapoorthla,704,7/13/2023,12/26/2023,Lucknow,Uttar Pradesh,,,26.90145217,80.94450466,Y,
543,Firozpur Suratganj,741,4/20/2018,7/30/2023,Barabanki,Uttar Pradesh,,,27.21073443,81.33403423,Y,
544,Saheed Nagar,749,9/13/2020,5/13/2018,Bhubaneswar,Odisha,,,20.29576995,85.84527015,Y,
545,Paigwa,764,12/20/2017,2/25/2023,Barabanki,Uttar Pradesh,,,27.09653607,81.21674915,Y,
546,Besant Nagar,849,2/23/2019,4/8/2022,Chennai,Tamil Nadu,,,13.00001241,80.26501864,,
547,Tezpur,863,6/24/2021,12/25/2022,Sonitpur,Assam,,,26.65998342,92.83001632,,
548,Bilasipara,864,6/24/2021,2/20/2023,Dhubri,Assam,,,26.23999073,90.22998355,,
549,Perka,867,7/26/2021,11/19/2023,Khunti,Jharkhand,,,23.00949427,85.26826748,,
550,Kolebira,873,6/24/2021,12/26/2023,Simdega,Jharkhand,,,22.70087113,84.69572953,,
551,Mahuadanr,874,6/24/2021,5/28/2022,Latehar,Jharkhand,,,23.39800775,84.10515873,,
552,Kothrud,875,6/24/2021,12/26/2023,Pune,Maharashtra,,,18.50972943,73.81414443,,
553,Nagaon,878,10/9/2021,10/26/2021,Nagaon,Assam,,,26.33976164,92.68035934,,
554,Borbheta,886,3/16/2018,12/5/2023,Jorhat,Assam,,,26.73515761,94.20370787,,
555,Alipur,887,12/6/2019,12/26/2023,Cachar,Assam,,,24.82003282,92.94001227,,
556,Kardaitola,888,5/4/2022,12/26/2023,Nalbari,Assam,,,26.38999574,91.4802288,,
557,Domadih,889,5/10/2007,12/26/2023,Godda,Jharkhand,,,24.78403827,87.35407837,,
558,Bhurkunda,890,8/18/2021,11/8/2023,Ramgarh,Jharkhand,,,23.65400894,85.35503601,,
559,Haider Nagar,891,5/3/2022,8/4/2022,Palamu,Jharkhand,,,24.48504314,83.94303459,,
560,Kairo,893,5/4/2022,12/11/2022,Lohardaga,Jharkhand,,,23.45216698,84.82469568,,
561,Zalim Khurd,898,5/4/2022,12/26/2023,Latehar,Jharkhand,,,23.7244326,84.56730294,,
562,Mihijam,899,5/4/2022,6/12/2023,Jamtara,Jharkhand,,,23.84836705,86.87752362,,
563,Netarhat,900,5/4/2022,7/29/2022,Latehar,Jharkhand,,,23.48806356,84.26202311,,
564,Chanho,901,5/4/2022,10/21/2022,Ranchi,Jharkhand,,,23.49019734,84.96997941,,
565,Lalmatia,902,5/4/2022,12/26/2023,Godda,Jharkhand,,,25.06687738,87.3545568,,
566,Satbarwa,903,5/4/2022,12/26/2023,Latehar,Jharkhand,,,23.92731244,84.25540034,,
567,Chouparan,904,5/4/2022,3/17/2023,Hazaribagh,Jharkhand,,,24.36018843,85.29303987,,
568,Amrit Nagar,905,5/4/2022,12/26/2023,Hazaribagh,Jharkhand,,,23.98962882,85.41046454,,
569,Dudhimati,906,5/4/2022,9/20/2023,Koderma,Jharkhand,,,24.46023615,85.5798743,,
570,Nichinta,909,10/13/2022,6/30/2023,Goalpara,Assam,,,26.09830818,90.55750904,,
571,Khatorbari,910,8/18/2021,4/14/2023,Baksa,Assam,,,26.69991397,91.65023869,,
572,Wani,914,9/20/2023,12/21/2023,Yavatmal,Maharashtra,,,20.0599,78.9299,Y,
