{
"type": "FeatureCollection",
"name": "STATION_with_climate_zone1",
"crs": { "type": "name", "properties": { "name": "urn:ogc:def:crs:OGC:1.3:CRS84" } },
"features": [
{ "type": "Feature", "properties": { "station_id": 1, "Location name": "5th phase JP Nagar", "ESMI_ID": null, "Category": "State Capital", "Connection Type": "Domestic", "Lat": 12.90109183, "Lon": 77.58914966, "climate_zone_DN": 3, "climate_zone_name": "Tropical, savannah", "climate_zone_code": "Aw" }, "geometry": { "type": "Point", "coordinates": [ 77.58914966, 12.90109183 ] } },
{ "type": "Feature", "properties": { "station_id": 4, "Location name": "Adgaon", "ESMI_ID": null, "Category": "Gram Panchayat", "Connection Type": "Domestic", "Lat": 20.03718415, "Lon": 73.85013615, "climate_zone_DN": 3, "climate_zone_name": "Tropical, savannah", "climate_zone_code": "Aw" }, "geometry": { "type": "Point", "coordinates": [ 73.85013615, 20.03718415 ] } },
{ "type": "Feature", "properties": { "station_id": 10, "Location name": "Akoli Jehangir ", "ESMI_ID": null, "Category": "Gram Panchayat", "Connection Type": "Domestic", "Lat": 21.15483668, "Lon": 77.11846612, "climate_zone_DN": 3, "climate_zone_name": "Tropical, savannah", "climate_zone_code": "Aw" }, "geometry": { "type": "Point", "coordinates": [ 77.11846612, 21.15483668 ] } },
{ "type": "Feature", "properties": { "station_id": 11, "Location name": "Akot ", "ESMI_ID": null, "Category": "Other Municipal Area", "Connection Type": "Domestic", "Lat": 21.09598742, "Lon": 77.05470386, "climate_zone_DN": 3, "climate_zone_name": "Tropical, savannah", "climate_zone_code": "Aw" }, "geometry": { "type": "Point", "coordinates": [ 77.05470386, 21.09598742 ] } },
{ "type": "Feature", "properties": { "station_id": 13, "Location name": "Alandur", "ESMI_ID": null, "Category": "State Capital", "Connection Type": "Domestic", "Lat": 13.0008823, "Lon": 80.19930343, "climate_zone_DN": 3, "climate_zone_name": "Tropical, savannah", "climate_zone_code": "Aw" }, "geometry": { "type": "Point", "coordinates": [ 80.19930343, 13.0008823 ] } },
{ "type": "Feature", "properties": { "station_id": 15, "Location name": "Alipur Road", "ESMI_ID": null, "Category": "State Capital", "Connection Type": "Domestic", "Lat": 22.52821233, "Lon": 88.33302228, "climate_zone_DN": 3, "climate_zone_name": "Tropical, savannah", "climate_zone_code": "Aw" }, "geometry": { "type": "Point", "coordinates": [ 88.33302228, 22.52821233 ] } },
{ "type": "Feature", "properties": { "station_id": 17, "Location name": "Amar Nagar", "ESMI_ID": null, "Category": "District Headquarters", "Connection Type": "Domestic", "Lat": 21.10087868, "Lon": 79.11072152, "climate_zone_DN": 3, "climate_zone_name": "Tropical, savannah", "climate_zone_code": "Aw" }, "geometry": { "type": "Point", "coordinates": [ 79.11072152, 21.10087868 ] } },
{ "type": "Feature", "properties": { "station_id": 18, "Location name": "Ambathur Chennai", "ESMI_ID": null, "Category": "State Capital", "Connection Type": "Domestic", "Lat": 13.11873319, "Lon": 80.14558912, "climate_zone_DN": 3, "climate_zone_name": "Tropical, savannah", "climate_zone_code": "Aw" }, "geometry": { "type": "Point", "coordinates": [ 80.14558912, 13.11873319 ] } },
{ "type": "Feature", "properties": { "station_id": 23, "Location name": "Angol", "ESMI_ID": null, "Category": "District Headquarters", "Connection Type": "Domestic", "Lat": 15.82390411, "Lon": 74.50536576, "climate_zone_DN": 3, "climate_zone_name": "Tropical, savannah", "climate_zone_code": "Aw" }, "geometry": { "type": "Point", "coordinates": [ 74.50536576, 15.82390411 ] } },
{ "type": "Feature", "properties": { "station_id": 25, "Location name": "Arera Colony ", "ESMI_ID": null, "Category": "State Capital", "Connection Type": "Domestic", "Lat": 23.211293, "Lon": 77.43422528000001, "climate_zone_DN": 3, "climate_zone_name": "Tropical, savannah", "climate_zone_code": "Aw" }, "geometry": { "type": "Point", "coordinates": [ 77.43422528, 23.211293 ] } },
{ "type": "Feature", "properties": { "station_id": 30, "Location name": "Ashok Nagar ", "ESMI_ID": null, "Category": "District Headquarters", "Connection Type": "Domestic", "Lat": 19.98824727, "Lon": 73.71750658000001, "climate_zone_DN": 3, "climate_zone_name": "Tropical, savannah", "climate_zone_code": "Aw" }, "geometry": { "type": "Point", "coordinates": [ 73.71750658, 19.98824727 ] } },
{ "type": "Feature", "properties": { "station_id": 32, "Location name": "Aundh", "ESMI_ID": null, "Category": "District Headquarters", "Connection Type": "Domestic", "Lat": 18.55773612, "Lon": 73.80588097, "climate_zone_DN": 3, "climate_zone_name": "Tropical, savannah", "climate_zone_code": "Aw" }, "geometry": { "type": "Point", "coordinates": [ 73.80588097, 18.55773612 ] } },
{ "type": "Feature", "properties": { "station_id": 33, "Location name": "Avadi Chennai", "ESMI_ID": null, "Category": "Other Municipal Area", "Connection Type": "Domestic", "Lat": 13.11236984, "Lon": 80.0893033, "climate_zone_DN": 3, "climate_zone_name": "Tropical, savannah", "climate_zone_code": "Aw" }, "geometry": { "type": "Point", "coordinates": [ 80.0893033, 13.11236984 ] } },
{ "type": "Feature", "properties": { "station_id": 44, "Location name": "Bajirao Road", "ESMI_ID": null, "Category": "District Headquarters", "Connection Type": "Non Domestic", "Lat": 18.51099092, "Lon": 73.85341769, "climate_zone_DN": 3, "climate_zone_name": "Tropical, savannah", "climate_zone_code": "Aw" }, "geometry": { "type": "Point", "coordinates": [ 73.85341769, 18.51099092 ] } },
{ "type": "Feature", "properties": { "station_id": 48, "Location name": "Baner", "ESMI_ID": null, "Category": "District Headquarters", "Connection Type": "Domestic", "Lat": 18.55992891, "Lon": 73.78388672, "climate_zone_DN": 3, "climate_zone_name": "Tropical, savannah", "climate_zone_code": "Aw" }, "geometry": { "type": "Point", "coordinates": [ 73.78388672, 18.55992891 ] } },
{ "type": "Feature", "properties": { "station_id": 60, "Location name": "Basaweshwara Nagar", "ESMI_ID": null, "Category": "State Capital", "Connection Type": "Domestic", "Lat": 12.99141592, "Lon": 77.53995035, "climate_zone_DN": 3, "climate_zone_name": "Tropical, savannah", "climate_zone_code": "Aw" }, "geometry": { "type": "Point", "coordinates": [ 77.53995035, 12.99141592 ] } },
{ "type": "Feature", "properties": { "station_id": 62, "Location name": "Belguria", "ESMI_ID": null, "Category": "State Capital", "Connection Type": "Domestic", "Lat": 22.66550982, "Lon": 88.3870016, "climate_zone_DN": 3, "climate_zone_name": "Tropical, savannah", "climate_zone_code": "Aw" }, "geometry": { "type": "Point", "coordinates": [ 88.3870016, 22.66550982 ] } },
{ "type": "Feature", "properties": { "station_id": 65, "Location name": "Besa", "ESMI_ID": null, "Category": "District Headquarters", "Connection Type": "Non Domestic", "Lat": 21.08701093, "Lon": 79.08872136, "climate_zone_DN": 3, "climate_zone_name": "Tropical, savannah", "climate_zone_code": "Aw" }, "geometry": { "type": "Point", "coordinates": [ 79.08872136, 21.08701093 ] } },
{ "type": "Feature", "properties": { "station_id": 70, "Location name": "Bhagyanagar", "ESMI_ID": null, "Category": "District Headquarters", "Connection Type": "Domestic", "Lat": 15.82888217, "Lon": 74.5058591, "climate_zone_DN": 3, "climate_zone_name": "Tropical, savannah", "climate_zone_code": "Aw" }, "geometry": { "type": "Point", "coordinates": [ 74.5058591, 15.82888217 ] } },
{ "type": "Feature", "properties": { "station_id": 75, "Location name": "Bhatghar ", "ESMI_ID": null, "Category": "Gram Panchayat", "Connection Type": "Domestic", "Lat": 18.16544084, "Lon": 73.85562305000001, "climate_zone_DN": 3, "climate_zone_name": "Tropical, savannah", "climate_zone_code": "Aw" }, "geometry": { "type": "Point", "coordinates": [ 73.85562305, 18.16544084 ] } },
{ "type": "Feature", "properties": { "station_id": 78, "Location name": "Bhendali", "ESMI_ID": null, "Category": "Gram Panchayat", "Connection Type": "Domestic", "Lat": 19.97230507, "Lon": 74.06110709, "climate_zone_DN": 3, "climate_zone_name": "Tropical, savannah", "climate_zone_code": "Aw" }, "geometry": { "type": "Point", "coordinates": [ 74.06110709, 19.97230507 ] } },
{ "type": "Feature", "properties": { "station_id": 79, "Location name": "Bhimatangi Housing Colony Bhubaneswar", "ESMI_ID": null, "Category": "State Capital", "Connection Type": "Domestic", "Lat": 20.23671836, "Lon": 85.82085681, "climate_zone_DN": 3, "climate_zone_name": "Tropical, savannah", "climate_zone_code": "Aw" }, "geometry": { "type": "Point", "coordinates": [ 85.82085681, 20.23671836 ] } },
{ "type": "Feature", "properties": { "station_id": 81, "Location name": "Bhosari", "ESMI_ID": null, "Category": "Other Municipal Area", "Connection Type": "Non Domestic", "Lat": 18.63296389, "Lon": 73.84801811, "climate_zone_DN": 3, "climate_zone_name": "Tropical, savannah", "climate_zone_code": "Aw" }, "geometry": { "type": "Point", "coordinates": [ 73.84801811, 18.63296389 ] } },
{ "type": "Feature", "properties": { "station_id": 83, "Location name": "Bibwewadi ", "ESMI_ID": null, "Category": "District Headquarters", "Connection Type": "Domestic", "Lat": 18.46852725, "Lon": 73.8737372, "climate_zone_DN": 3, "climate_zone_name": "Tropical, savannah", "climate_zone_code": "Aw" }, "geometry": { "type": "Point", "coordinates": [ 73.8737372, 18.46852725 ] } },
{ "type": "Feature", "properties": { "station_id": 87, "Location name": "Boiguda", "ESMI_ID": null, "Category": "State Capital", "Connection Type": "Domestic", "Lat": 17.42826004, "Lon": 78.4992189, "climate_zone_DN": 3, "climate_zone_name": "Tropical, savannah", "climate_zone_code": "Aw" }, "geometry": { "type": "Point", "coordinates": [ 78.4992189, 17.42826004 ] } },
{ "type": "Feature", "properties": { "station_id": 91, "Location name": "BTM Layout", "ESMI_ID": null, "Category": "State Capital", "Connection Type": "Domestic", "Lat": 12.91468881, "Lon": 77.61130332, "climate_zone_DN": 3, "climate_zone_name": "Tropical, savannah", "climate_zone_code": "Aw" }, "geometry": { "type": "Point", "coordinates": [ 77.61130332, 12.91468881 ] } },
{ "type": "Feature", "properties": { "station_id": 96, "Location name": "Chandori", "ESMI_ID": null, "Category": "Gram Panchayat", "Connection Type": "Domestic", "Lat": 20.0250979, "Lon": 73.99864664, "climate_zone_DN": 3, "climate_zone_name": "Tropical, savannah", "climate_zone_code": "Aw" }, "geometry": { "type": "Point", "coordinates": [ 73.99864664, 20.0250979 ] } },
{ "type": "Feature", "properties": { "station_id": 97, "Location name": "Chandra Layout", "ESMI_ID": null, "Category": "State Capital", "Connection Type": "Domestic", "Lat": 12.95327145, "Lon": 77.52353936, "climate_zone_DN": 3, "climate_zone_name": "Tropical, savannah", "climate_zone_code": "Aw" }, "geometry": { "type": "Point", "coordinates": [ 77.52353936, 12.95327145 ] } },
{ "type": "Feature", "properties": { "station_id": 98, "Location name": "Chandrasekharpur Bhubaneswar", "ESMI_ID": null, "Category": "State Capital", "Connection Type": "Domestic", "Lat": 20.32985647, "Lon": 85.81383097, "climate_zone_DN": 3, "climate_zone_name": "Tropical, savannah", "climate_zone_code": "Aw" }, "geometry": { "type": "Point", "coordinates": [ 85.81383097, 20.32985647 ] } },
{ "type": "Feature", "properties": { "station_id": 101, "Location name": "Chatori", "ESMI_ID": null, "Category": "Gram Panchayat", "Connection Type": "Domestic", "Lat": 19.99464484, "Lon": 73.99533579, "climate_zone_DN": 3, "climate_zone_name": "Tropical, savannah", "climate_zone_code": "Aw" }, "geometry": { "type": "Point", "coordinates": [ 73.99533579, 19.99464484 ] } },
{ "type": "Feature", "properties": { "station_id": 103, "Location name": "Chichaliya ", "ESMI_ID": null, "Category": "Gram Panchayat", "Connection Type": "Domestic", "Lat": 22.09817706, "Lon": 75.58861816, "climate_zone_DN": 3, "climate_zone_name": "Tropical, savannah", "climate_zone_code": "Aw" }, "geometry": { "type": "Point", "coordinates": [ 75.58861816, 22.09817706 ] } },
{ "type": "Feature", "properties": { "station_id": 105, "Location name": "Chitegaon phata", "ESMI_ID": null, "Category": "Gram Panchayat", "Connection Type": "Non Domestic", "Lat": 19.74018289, "Lon": 75.30196632000001, "climate_zone_DN": 3, "climate_zone_name": "Tropical, savannah", "climate_zone_code": "Aw" }, "geometry": { "type": "Point", "coordinates": [ 75.30196632, 19.74018289 ] } },
{ "type": "Feature", "properties": { "station_id": 106, "Location name": "Chitlapakkam Chennai", "ESMI_ID": null, "Category": "State Capital", "Connection Type": "Domestic", "Lat": 12.93499789, "Lon": 80.14353326, "climate_zone_DN": 3, "climate_zone_name": "Tropical, savannah", "climate_zone_code": "Aw" }, "geometry": { "type": "Point", "coordinates": [ 80.14353326, 12.93499789 ] } },
{ "type": "Feature", "properties": { "station_id": 115, "Location name": "Congress Nagar", "ESMI_ID": null, "Category": "District Headquarters", "Connection Type": "Domestic", "Lat": 21.13258935, "Lon": 79.08440136, "climate_zone_DN": 3, "climate_zone_name": "Tropical, savannah", "climate_zone_code": "Aw" }, "geometry": { "type": "Point", "coordinates": [ 79.08440136, 21.13258935 ] } },
{ "type": "Feature", "properties": { "station_id": 116, "Location name": "Congress Road", "ESMI_ID": null, "Category": "District Headquarters", "Connection Type": "Non Domestic", "Lat": 15.83814416, "Lon": 74.50174503, "climate_zone_DN": 3, "climate_zone_name": "Tropical, savannah", "climate_zone_code": "Aw" }, "geometry": { "type": "Point", "coordinates": [ 74.50174503, 15.83814416 ] } },
{ "type": "Feature", "properties": { "station_id": 119, "Location name": "Dandia Bazar Vadodara", "ESMI_ID": null, "Category": "District Headquarters", "Connection Type": "Domestic", "Lat": 22.30156076, "Lon": 73.19743886000001, "climate_zone_DN": 3, "climate_zone_name": "Tropical, savannah", "climate_zone_code": "Aw" }, "geometry": { "type": "Point", "coordinates": [ 73.19743886, 22.30156076 ] } },
{ "type": "Feature", "properties": { "station_id": 128, "Location name": "Dhakuria Kolkata", "ESMI_ID": null, "Category": "State Capital", "Connection Type": "Domestic", "Lat": 22.50817279, "Lon": 88.3636362, "climate_zone_DN": 3, "climate_zone_name": "Tropical, savannah", "climate_zone_code": "Aw" }, "geometry": { "type": "Point", "coordinates": [ 88.3636362, 22.50817279 ] } },
{ "type": "Feature", "properties": { "station_id": 140, "Location name": "Gachibowli ", "ESMI_ID": null, "Category": "State Capital", "Connection Type": "Domestic", "Lat": 17.44298616, "Lon": 78.33711266, "climate_zone_DN": 3, "climate_zone_name": "Tropical, savannah", "climate_zone_code": "Aw" }, "geometry": { "type": "Point", "coordinates": [ 78.33711266, 17.44298616 ] } },
{ "type": "Feature", "properties": { "station_id": 142, "Location name": "Galagihulukoppa", "ESMI_ID": null, "Category": "Gram Panchayat", "Connection Type": "Non Domestic", "Lat": 15.46365754, "Lon": 74.99466058, "climate_zone_DN": 3, "climate_zone_name": "Tropical, savannah", "climate_zone_code": "Aw" }, "geometry": { "type": "Point", "coordinates": [ 74.99466058, 15.46365754 ] } },
{ "type": "Feature", "properties": { "station_id": 143, "Location name": "Gandhi Nagar  Semmandalam", "ESMI_ID": null, "Category": "District Headquarters", "Connection Type": "Domestic", "Lat": 11.76234103, "Lon": 79.74899696, "climate_zone_DN": 3, "climate_zone_name": "Tropical, savannah", "climate_zone_code": "Aw" }, "geometry": { "type": "Point", "coordinates": [ 79.74899696, 11.76234103 ] } },
{ "type": "Feature", "properties": { "station_id": 153, "Location name": "Golpark ", "ESMI_ID": null, "Category": "State Capital", "Connection Type": "Domestic", "Lat": 22.5167072, "Lon": 88.366301, "climate_zone_DN": 3, "climate_zone_name": "Tropical, savannah", "climate_zone_code": "Aw" }, "geometry": { "type": "Point", "coordinates": [ 88.366301, 22.5167072 ] } },
{ "type": "Feature", "properties": { "station_id": 156, "Location name": "Gopalapuram", "ESMI_ID": null, "Category": "State Capital", "Connection Type": "Domestic", "Lat": 13.05009581, "Lon": 80.25754225, "climate_zone_DN": 3, "climate_zone_name": "Tropical, savannah", "climate_zone_code": "Aw" }, "geometry": { "type": "Point", "coordinates": [ 80.25754225, 13.05009581 ] } },
{ "type": "Feature", "properties": { "station_id": 157, "Location name": "Govardhanagiri Avadi", "ESMI_ID": null, "Category": "State Capital", "Connection Type": "Domestic", "Lat": 13.09925103, "Lon": 80.10779506, "climate_zone_DN": 3, "climate_zone_name": "Tropical, savannah", "climate_zone_code": "Aw" }, "geometry": { "type": "Point", "coordinates": [ 80.10779506, 13.09925103 ] } },
{ "type": "Feature", "properties": { "station_id": 164, "Location name": "Halbhavi Camp", "ESMI_ID": null, "Category": "District Headquarters", "Connection Type": "Domestic", "Lat": 15.88153813, "Lon": 74.5334616, "climate_zone_DN": 3, "climate_zone_name": "Tropical, savannah", "climate_zone_code": "Aw" }, "geometry": { "type": "Point", "coordinates": [ 74.5334616, 15.88153813 ] } },
{ "type": "Feature", "properties": { "station_id": 170, "Location name": "Hindawadi", "ESMI_ID": null, "Category": "District Headquarters", "Connection Type": "Domestic", "Lat": 15.83605197, "Lon": 74.51228034, "climate_zone_DN": 3, "climate_zone_name": "Tropical, savannah", "climate_zone_code": "Aw" }, "geometry": { "type": "Point", "coordinates": [ 74.51228034, 15.83605197 ] } },
{ "type": "Feature", "properties": { "station_id": 183, "Location name": "Ikkadu", "ESMI_ID": null, "Category": "Other Municipal Area", "Connection Type": "Domestic", "Lat": 13.15781815, "Lon": 79.91876158, "climate_zone_DN": 3, "climate_zone_name": "Tropical, savannah", "climate_zone_code": "Aw" }, "geometry": { "type": "Point", "coordinates": [ 79.91876158, 13.15781815 ] } },
{ "type": "Feature", "properties": { "station_id": 190, "Location name": "Jadavpur", "ESMI_ID": null, "Category": "State Capital", "Connection Type": "Domestic", "Lat": 22.49472891, "Lon": 88.36585923, "climate_zone_DN": 3, "climate_zone_name": "Tropical, savannah", "climate_zone_code": "Aw" }, "geometry": { "type": "Point", "coordinates": [ 88.36585923, 22.49472891 ] } },
{ "type": "Feature", "properties": { "station_id": 195, "Location name": "Jan Path", "ESMI_ID": null, "Category": "State Capital", "Connection Type": "Non Domestic", "Lat": 20.27566667, "Lon": 85.83698172, "climate_zone_DN": 3, "climate_zone_name": "Tropical, savannah", "climate_zone_code": "Aw" }, "geometry": { "type": "Point", "coordinates": [ 85.83698172, 20.27566667 ] } },
{ "type": "Feature", "properties": { "station_id": 196, "Location name": "Jangaon", "ESMI_ID": null, "Category": "Other Municipal Area", "Connection Type": "Non Domestic", "Lat": 17.72888875, "Lon": 79.15961532, "climate_zone_DN": 3, "climate_zone_name": "Tropical, savannah", "climate_zone_code": "Aw" }, "geometry": { "type": "Point", "coordinates": [ 79.15961532, 17.72888875 ] } },
{ "type": "Feature", "properties": { "station_id": 198, "Location name": "Jayanagar", "ESMI_ID": null, "Category": "State Capital", "Connection Type": "Domestic", "Lat": 12.93577812, "Lon": 77.59204706, "climate_zone_DN": 3, "climate_zone_name": "Tropical, savannah", "climate_zone_code": "Aw" }, "geometry": { "type": "Point", "coordinates": [ 77.59204706, 12.93577812 ] } },
{ "type": "Feature", "properties": { "station_id": 200, "Location name": "Jaydev Vihar", "ESMI_ID": null, "Category": "State Capital", "Connection Type": "Domestic", "Lat": 20.30057101, "Lon": 85.81452204, "climate_zone_DN": 3, "climate_zone_name": "Tropical, savannah", "climate_zone_code": "Aw" }, "geometry": { "type": "Point", "coordinates": [ 85.81452204, 20.30057101 ] } },
{ "type": "Feature", "properties": { "station_id": 205, "Location name": "Joka", "ESMI_ID": null, "Category": "State Capital", "Connection Type": "Domestic", "Lat": 22.45234038, "Lon": 88.29913698, "climate_zone_DN": 3, "climate_zone_name": "Tropical, savannah", "climate_zone_code": "Aw" }, "geometry": { "type": "Point", "coordinates": [ 88.29913698, 22.45234038 ] } },
{ "type": "Feature", "properties": { "station_id": 207, "Location name": "JP Nagar ", "ESMI_ID": null, "Category": "State Capital", "Connection Type": "Non Domestic", "Lat": 12.89026075, "Lon": 77.57904016000001, "climate_zone_DN": 3, "climate_zone_name": "Tropical, savannah", "climate_zone_code": "Aw" }, "geometry": { "type": "Point", "coordinates": [ 77.57904016, 12.89026075 ] } },
{ "type": "Feature", "properties": { "station_id": 215, "Location name": "Kakatiya Nagar", "ESMI_ID": null, "Category": "State Capital", "Connection Type": "Domestic", "Lat": 17.41615318, "Lon": 78.54180189, "climate_zone_DN": 3, "climate_zone_name": "Tropical, savannah", "climate_zone_code": "Aw" }, "geometry": { "type": "Point", "coordinates": [ 78.54180189, 17.41615318 ] } },
{ "type": "Feature", "properties": { "station_id": 216, "Location name": "Kalindi Housing Estate", "ESMI_ID": null, "Category": "State Capital", "Connection Type": "Domestic", "Lat": 22.61155988, "Lon": 88.39922385, "climate_zone_DN": 3, "climate_zone_name": "Tropical, savannah", "climate_zone_code": "Aw" }, "geometry": { "type": "Point", "coordinates": [ 88.39922385, 22.61155988 ] } },
{ "type": "Feature", "properties": { "station_id": 217, "Location name": "Kalpataru Nagar ", "ESMI_ID": null, "Category": "District Headquarters", "Connection Type": "Domestic", "Lat": 19.97722576, "Lon": 73.79887202, "climate_zone_DN": 3, "climate_zone_name": "Tropical, savannah", "climate_zone_code": "Aw" }, "geometry": { "type": "Point", "coordinates": [ 73.79887202, 19.97722576 ] } },
{ "type": "Feature", "properties": { "station_id": 219, "Location name": "Kamatwade", "ESMI_ID": null, "Category": "District Headquarters", "Connection Type": "Domestic", "Lat": 19.97357987, "Lon": 73.74642793, "climate_zone_DN": 3, "climate_zone_name": "Tropical, savannah", "climate_zone_code": "Aw" }, "geometry": { "type": "Point", "coordinates": [ 73.74642793, 19.97357987 ] } },
{ "type": "Feature", "properties": { "station_id": 222, "Location name": "Kamraj Nagar Avadi", "ESMI_ID": null, "Category": "State Capital", "Connection Type": "Domestic", "Lat": 13.10595941, "Lon": 80.09637953, "climate_zone_DN": 3, "climate_zone_name": "Tropical, savannah", "climate_zone_code": "Aw" }, "geometry": { "type": "Point", "coordinates": [ 80.09637953, 13.10595941 ] } },
{ "type": "Feature", "properties": { "station_id": 236, "Location name": "Katara Hills Bhopal", "ESMI_ID": null, "Category": "District Headquarters", "Connection Type": "Domestic", "Lat": 23.19467351, "Lon": 77.48924005000001, "climate_zone_DN": 3, "climate_zone_name": "Tropical, savannah", "climate_zone_code": "Aw" }, "geometry": { "type": "Point", "coordinates": [ 77.48924005, 23.19467351 ] } },
{ "type": "Feature", "properties": { "station_id": 239, "Location name": "Keonjhar ", "ESMI_ID": null, "Category": "Other Municipal Area", "Connection Type": "Domestic", "Lat": 21.64696343, "Lon": 85.60272104000001, "climate_zone_DN": 3, "climate_zone_name": "Tropical, savannah", "climate_zone_code": "Aw" }, "geometry": { "type": "Point", "coordinates": [ 85.60272104, 21.64696343 ] } },
{ "type": "Feature", "properties": { "station_id": 242, "Location name": "Khade Bazar ", "ESMI_ID": null, "Category": "District Headquarters", "Connection Type": "Domestic", "Lat": 15.86417694, "Lon": 74.51574681, "climate_zone_DN": 3, "climate_zone_name": "Tropical, savannah", "climate_zone_code": "Aw" }, "geometry": { "type": "Point", "coordinates": [ 74.51574681, 15.86417694 ] } },
{ "type": "Feature", "properties": { "station_id": 246, "Location name": "Khardah", "ESMI_ID": null, "Category": "State Capital", "Connection Type": "Domestic", "Lat": 22.71308039, "Lon": 88.37930228, "climate_zone_DN": 3, "climate_zone_name": "Tropical, savannah", "climate_zone_code": "Aw" }, "geometry": { "type": "Point", "coordinates": [ 88.37930228, 22.71308039 ] } },
{ "type": "Feature", "properties": { "station_id": 251, "Location name": "Kondhanpur", "ESMI_ID": null, "Category": "Gram Panchayat", "Connection Type": "Domestic", "Lat": 18.34805063, "Lon": 73.79407913, "climate_zone_DN": 3, "climate_zone_name": "Tropical, savannah", "climate_zone_code": "Aw" }, "geometry": { "type": "Point", "coordinates": [ 73.79407913, 18.34805063 ] } },
{ "type": "Feature", "properties": { "station_id": 253, "Location name": "Kothi Bazar Hoshangabad", "ESMI_ID": null, "Category": "District Headquarters", "Connection Type": "Domestic", "Lat": 22.75431779, "Lon": 77.73037436, "climate_zone_DN": 3, "climate_zone_name": "Tropical, savannah", "climate_zone_code": "Aw" }, "geometry": { "type": "Point", "coordinates": [ 77.73037436, 22.75431779 ] } },
{ "type": "Feature", "properties": { "station_id": 255, "Location name": "Kovvur", "ESMI_ID": null, "Category": "Other Municipal Area", "Connection Type": "Domestic", "Lat": 17.01344309, "Lon": 81.72812678, "climate_zone_DN": 3, "climate_zone_name": "Tropical, savannah", "climate_zone_code": "Aw" }, "geometry": { "type": "Point", "coordinates": [ 81.72812678, 17.01344309 ] } },
{ "type": "Feature", "properties": { "station_id": 261, "Location name": "Kuthappakkam Cuddalore", "ESMI_ID": null, "Category": "Other Municipal Area", "Connection Type": "Domestic", "Lat": 11.74985661, "Lon": 79.73353919, "climate_zone_DN": 3, "climate_zone_name": "Tropical, savannah", "climate_zone_code": "Aw" }, "geometry": { "type": "Point", "coordinates": [ 79.73353919, 11.74985661 ] } },
{ "type": "Feature", "properties": { "station_id": 272, "Location name": "Malakhedi road Hoshangabad", "ESMI_ID": null, "Category": "District Headquarters", "Connection Type": "Non Domestic", "Lat": 22.7486164, "Lon": 77.75456385, "climate_zone_DN": 3, "climate_zone_name": "Tropical, savannah", "climate_zone_code": "Aw" }, "geometry": { "type": "Point", "coordinates": [ 77.75456385, 22.7486164 ] } },
{ "type": "Feature", "properties": { "station_id": 273, "Location name": "Malakhedi", "ESMI_ID": null, "Category": "Gram Panchayat", "Connection Type": "Domestic", "Lat": 22.7486164, "Lon": 77.75456385, "climate_zone_DN": 3, "climate_zone_name": "Tropical, savannah", "climate_zone_code": "Aw" }, "geometry": { "type": "Point", "coordinates": [ 77.75456385, 22.7486164 ] } },
{ "type": "Feature", "properties": { "station_id": 275, "Location name": "Mallapur ", "ESMI_ID": null, "Category": "Gram Panchayat", "Connection Type": "Domestic", "Lat": 17.44395822, "Lon": 78.5805662, "climate_zone_DN": 3, "climate_zone_name": "Tropical, savannah", "climate_zone_code": "Aw" }, "geometry": { "type": "Point", "coordinates": [ 78.5805662, 17.44395822 ] } },
{ "type": "Feature", "properties": { "station_id": 278, "Location name": "Mandideep", "ESMI_ID": null, "Category": "Other Municipal Area", "Connection Type": "Non Domestic", "Lat": 23.09785035, "Lon": 77.51004172, "climate_zone_DN": 3, "climate_zone_name": "Tropical, savannah", "climate_zone_code": "Aw" }, "geometry": { "type": "Point", "coordinates": [ 77.51004172, 23.09785035 ] } },
{ "type": "Feature", "properties": { "station_id": 281, "Location name": "Mangulam Pattabiram", "ESMI_ID": null, "Category": "State Capital", "Connection Type": "Domestic", "Lat": 13.12718165, "Lon": 80.06590418, "climate_zone_DN": 3, "climate_zone_name": "Tropical, savannah", "climate_zone_code": "Aw" }, "geometry": { "type": "Point", "coordinates": [ 80.06590418, 13.12718165 ] } },
{ "type": "Feature", "properties": { "station_id": 286, "Location name": "MarenHalli", "ESMI_ID": null, "Category": "State Capital", "Connection Type": "Domestic", "Lat": 12.91546532, "Lon": 77.58870321000001, "climate_zone_DN": 3, "climate_zone_name": "Tropical, savannah", "climate_zone_code": "Aw" }, "geometry": { "type": "Point", "coordinates": [ 77.58870321, 12.91546532 ] } },
{ "type": "Feature", "properties": { "station_id": 296, "Location name": "MCECHS Layout ", "ESMI_ID": null, "Category": "State Capital", "Connection Type": "Domestic", "Lat": 13.07110596, "Lon": 77.62856324000001, "climate_zone_DN": 3, "climate_zone_name": "Tropical, savannah", "climate_zone_code": "Aw" }, "geometry": { "type": "Point", "coordinates": [ 77.62856324, 13.07110596 ] } },
{ "type": "Feature", "properties": { "station_id": 303, "Location name": "MIDC Ambad ", "ESMI_ID": null, "Category": "District Headquarters", "Connection Type": "Non Domestic", "Lat": 19.95323787, "Lon": 73.73381515, "climate_zone_DN": 3, "climate_zone_name": "Tropical, savannah", "climate_zone_code": "Aw" }, "geometry": { "type": "Point", "coordinates": [ 73.73381515, 19.95323787 ] } },
{ "type": "Feature", "properties": { "station_id": 305, "Location name": "MIDC", "ESMI_ID": null, "Category": "District Headquarters", "Connection Type": "Non Domestic", "Lat": 20.68151603, "Lon": 77.05537099, "climate_zone_DN": 3, "climate_zone_name": "Tropical, savannah", "climate_zone_code": "Aw" }, "geometry": { "type": "Point", "coordinates": [ 77.05537099, 20.68151603 ] } },
{ "type": "Feature", "properties": { "station_id": 316, "Location name": "Mukundapur Kolkata", "ESMI_ID": null, "Category": "State Capital", "Connection Type": "Domestic", "Lat": 22.49347437, "Lon": 88.41301567, "climate_zone_DN": 3, "climate_zone_name": "Tropical, savannah", "climate_zone_code": "Aw" }, "geometry": { "type": "Point", "coordinates": [ 88.41301567, 22.49347437 ] } },
{ "type": "Feature", "properties": { "station_id": 322, "Location name": "Nanegaon", "ESMI_ID": null, "Category": "Gram Panchayat", "Connection Type": "Agriculture", "Lat": 18.55094818, "Lon": 73.58012998, "climate_zone_DN": 3, "climate_zone_name": "Tropical, savannah", "climate_zone_code": "Aw" }, "geometry": { "type": "Point", "coordinates": [ 73.58012998, 18.55094818 ] } },
{ "type": "Feature", "properties": { "station_id": 323, "Location name": "Narapally ", "ESMI_ID": null, "Category": "State Capital", "Connection Type": "Domestic", "Lat": 17.4292017, "Lon": 78.62330504000001, "climate_zone_DN": 3, "climate_zone_name": "Tropical, savannah", "climate_zone_code": "Aw" }, "geometry": { "type": "Point", "coordinates": [ 78.62330504, 17.4292017 ] } },
{ "type": "Feature", "properties": { "station_id": 328, "Location name": "Netaji Nagar", "ESMI_ID": null, "Category": "State Capital", "Connection Type": "Domestic", "Lat": 13.13121087, "Lon": 80.27937941, "climate_zone_DN": 3, "climate_zone_name": "Tropical, savannah", "climate_zone_code": "Aw" }, "geometry": { "type": "Point", "coordinates": [ 80.27937941, 13.13121087 ] } },
{ "type": "Feature", "properties": { "station_id": 329, "Location name": "Nildoh", "ESMI_ID": null, "Category": "District Headquarters", "Connection Type": "Domestic", "Lat": 21.10965634, "Lon": 78.98795427, "climate_zone_DN": 3, "climate_zone_name": "Tropical, savannah", "climate_zone_code": "Aw" }, "geometry": { "type": "Point", "coordinates": [ 78.98795427, 21.10965634 ] } },
{ "type": "Feature", "properties": { "station_id": 332, "Location name": "Nippani", "ESMI_ID": null, "Category": "Other Municipal Area", "Connection Type": "Non Domestic", "Lat": 16.41293923, "Lon": 74.38038666, "climate_zone_DN": 3, "climate_zone_name": "Tropical, savannah", "climate_zone_code": "Aw" }, "geometry": { "type": "Point", "coordinates": [ 74.38038666, 16.41293923 ] } },
{ "type": "Feature", "properties": { "station_id": 334, "Location name": "Nyas Colony Hoshangabad", "ESMI_ID": null, "Category": "District Headquarters", "Connection Type": "Domestic", "Lat": 22.6201312, "Lon": 77.76999589, "climate_zone_DN": 3, "climate_zone_name": "Tropical, savannah", "climate_zone_code": "Aw" }, "geometry": { "type": "Point", "coordinates": [ 77.76999589, 22.6201312 ] } },
{ "type": "Feature", "properties": { "station_id": 338, "Location name": "Ozar", "ESMI_ID": null, "Category": "Gram Panchayat", "Connection Type": "Non Domestic", "Lat": 20.10242343, "Lon": 73.93613737, "climate_zone_DN": 3, "climate_zone_name": "Tropical, savannah", "climate_zone_code": "Aw" }, "geometry": { "type": "Point", "coordinates": [ 73.93613737, 20.10242343 ] } },
{ "type": "Feature", "properties": { "station_id": 339, "Location name": "Pabal", "ESMI_ID": null, "Category": "Gram Panchayat", "Connection Type": "Domestic", "Lat": 18.83120008, "Lon": 74.05244874, "climate_zone_DN": 3, "climate_zone_name": "Tropical, savannah", "climate_zone_code": "Aw" }, "geometry": { "type": "Point", "coordinates": [ 74.05244874, 18.83120008 ] } },
{ "type": "Feature", "properties": { "station_id": 353, "Location name": "Patharikuppam", "ESMI_ID": null, "Category": "Gram Panchayat", "Connection Type": "Domestic", "Lat": 11.74811899, "Lon": 79.73552234, "climate_zone_DN": 3, "climate_zone_name": "Tropical, savannah", "climate_zone_code": "Aw" }, "geometry": { "type": "Point", "coordinates": [ 79.73552234, 11.74811899 ] } },
{ "type": "Feature", "properties": { "station_id": 356, "Location name": "Paud", "ESMI_ID": null, "Category": "Gram Panchayat", "Connection Type": "Domestic", "Lat": 18.52445709, "Lon": 73.6126899, "climate_zone_DN": 3, "climate_zone_name": "Tropical, savannah", "climate_zone_code": "Aw" }, "geometry": { "type": "Point", "coordinates": [ 73.6126899, 18.52445709 ] } },
{ "type": "Feature", "properties": { "station_id": 358, "Location name": "Periyar Street Chidambaram", "ESMI_ID": null, "Category": "Other Municipal Area", "Connection Type": "Domestic", "Lat": 11.40091365, "Lon": 79.68546278, "climate_zone_DN": 3, "climate_zone_name": "Tropical, savannah", "climate_zone_code": "Aw" }, "geometry": { "type": "Point", "coordinates": [ 79.68546278, 11.40091365 ] } },
{ "type": "Feature", "properties": { "station_id": 360, "Location name": "Pimplekhuta ", "ESMI_ID": null, "Category": "Gram Panchayat", "Connection Type": "Non Domestic", "Lat": 19.72685999, "Lon": 77.19559707000001, "climate_zone_DN": 3, "climate_zone_name": "Tropical, savannah", "climate_zone_code": "Aw" }, "geometry": { "type": "Point", "coordinates": [ 77.19559707, 19.72685999 ] } },
{ "type": "Feature", "properties": { "station_id": 361, "Location name": "Pimpri-Chinchwad", "ESMI_ID": null, "Category": "Other Municipal Area", "Connection Type": "Non Domestic", "Lat": 18.6406603, "Lon": 73.79110991, "climate_zone_DN": 3, "climate_zone_name": "Tropical, savannah", "climate_zone_code": "Aw" }, "geometry": { "type": "Point", "coordinates": [ 73.79110991, 18.6406603 ] } },
{ "type": "Feature", "properties": { "station_id": 368, "Location name": "Puthagaram Chennai", "ESMI_ID": null, "Category": "State Capital", "Connection Type": "Domestic", "Lat": 13.12051966, "Lon": 80.18972049, "climate_zone_DN": 3, "climate_zone_name": "Tropical, savannah", "climate_zone_code": "Aw" }, "geometry": { "type": "Point", "coordinates": [ 80.18972049, 13.12051966 ] } },
{ "type": "Feature", "properties": { "station_id": 372, "Location name": "Rahul Nagar Bhopal", "ESMI_ID": null, "Category": "District Headquarters", "Connection Type": "Domestic", "Lat": 23.09319908, "Lon": 77.52903704000001, "climate_zone_DN": 3, "climate_zone_name": "Tropical, savannah", "climate_zone_code": "Aw" }, "geometry": { "type": "Point", "coordinates": [ 77.52903704, 23.09319908 ] } },
{ "type": "Feature", "properties": { "station_id": 376, "Location name": "Rajaji Nagar", "ESMI_ID": null, "Category": "State Capital", "Connection Type": "Domestic", "Lat": 12.99482993, "Lon": 77.55242138, "climate_zone_DN": 3, "climate_zone_name": "Tropical, savannah", "climate_zone_code": "Aw" }, "geometry": { "type": "Point", "coordinates": [ 77.55242138, 12.99482993 ] } },
{ "type": "Feature", "properties": { "station_id": 380, "Location name": "Ramesh Nagar", "ESMI_ID": null, "Category": "State Capital", "Connection Type": "Domestic", "Lat": 12.95871838, "Lon": 77.679547, "climate_zone_DN": 3, "climate_zone_name": "Tropical, savannah", "climate_zone_code": "Aw" }, "geometry": { "type": "Point", "coordinates": [ 77.679547, 12.95871838 ] } },
{ "type": "Feature", "properties": { "station_id": 383, "Location name": "Rani Chennamma Nagar", "ESMI_ID": null, "Category": "District Headquarters", "Connection Type": "Domestic", "Lat": 15.82732121, "Lon": 74.48969111, "climate_zone_DN": 3, "climate_zone_name": "Tropical, savannah", "climate_zone_code": "Aw" }, "geometry": { "type": "Point", "coordinates": [ 74.48969111, 15.82732121 ] } },
{ "type": "Feature", "properties": { "station_id": 386, "Location name": "Rasuliya Hoshangabad", "ESMI_ID": null, "Category": "District Headquarters", "Connection Type": "Domestic", "Lat": 22.73477556, "Lon": 77.72483934, "climate_zone_DN": 3, "climate_zone_name": "Tropical, savannah", "climate_zone_code": "Aw" }, "geometry": { "type": "Point", "coordinates": [ 77.72483934, 22.73477556 ] } },
{ "type": "Feature", "properties": { "station_id": 387, "Location name": "Razole Village", "ESMI_ID": null, "Category": "Gram Panchayat", "Connection Type": "Domestic", "Lat": 16.47702212, "Lon": 81.83956578, "climate_zone_DN": 3, "climate_zone_name": "Tropical, savannah", "climate_zone_code": "Aw" }, "geometry": { "type": "Point", "coordinates": [ 81.83956578, 16.47702212 ] } },
{ "type": "Feature", "properties": { "station_id": 390, "Location name": "Retteri Chennai", "ESMI_ID": null, "Category": "District Headquarters", "Connection Type": "Domestic", "Lat": 13.14345925, "Lon": 80.21146433, "climate_zone_DN": 3, "climate_zone_name": "Tropical, savannah", "climate_zone_code": "Aw" }, "geometry": { "type": "Point", "coordinates": [ 80.21146433, 13.14345925 ] } },
{ "type": "Feature", "properties": { "station_id": 392, "Location name": "Sadar", "ESMI_ID": null, "Category": "District Headquarters", "Connection Type": "Domestic", "Lat": 21.16422385, "Lon": 79.07308303000001, "climate_zone_DN": 3, "climate_zone_name": "Tropical, savannah", "climate_zone_code": "Aw" }, "geometry": { "type": "Point", "coordinates": [ 79.07308303, 21.16422385 ] } },
{ "type": "Feature", "properties": { "station_id": 393, "Location name": "Sadashiv Nagar", "ESMI_ID": null, "Category": "District Headquarters", "Connection Type": "Domestic", "Lat": 15.8765877, "Lon": 74.50630578000001, "climate_zone_DN": 3, "climate_zone_name": "Tropical, savannah", "climate_zone_code": "Aw" }, "geometry": { "type": "Point", "coordinates": [ 74.50630578, 15.8765877 ] } },
{ "type": "Feature", "properties": { "station_id": 403, "Location name": "Sainikpuri", "ESMI_ID": null, "Category": "State Capital", "Connection Type": "Domestic", "Lat": 17.49662598, "Lon": 78.56243799000001, "climate_zone_DN": 3, "climate_zone_name": "Tropical, savannah", "climate_zone_code": "Aw" }, "geometry": { "type": "Point", "coordinates": [ 78.56243799, 17.49662598 ] } },
{ "type": "Feature", "properties": { "station_id": 404, "Location name": "Salaiya Bhopal", "ESMI_ID": null, "Category": "District Headquarters", "Connection Type": "Domestic", "Lat": 23.1658681, "Lon": 77.44220119000001, "climate_zone_DN": 3, "climate_zone_name": "Tropical, savannah", "climate_zone_code": "Aw" }, "geometry": { "type": "Point", "coordinates": [ 77.44220119, 23.1658681 ] } },
{ "type": "Feature", "properties": { "station_id": 410, "Location name": "Samta Colony _Raipur", "ESMI_ID": null, "Category": "State Capital", "Connection Type": "Domestic", "Lat": 21.24513803, "Lon": 81.61616194, "climate_zone_DN": 3, "climate_zone_name": "Tropical, savannah", "climate_zone_code": "Aw" }, "geometry": { "type": "Point", "coordinates": [ 81.61616194, 21.24513803 ] } },
{ "type": "Feature", "properties": { "station_id": 412, "Location name": "Sangoni Kalan", "ESMI_ID": null, "Category": "Gram Panchayat", "Connection Type": "Non Domestic", "Lat": 23.24634905, "Lon": 77.53322123, "climate_zone_DN": 3, "climate_zone_name": "Tropical, savannah", "climate_zone_code": "Aw" }, "geometry": { "type": "Point", "coordinates": [ 77.53322123, 23.24634905 ] } },
{ "type": "Feature", "properties": { "station_id": 422, "Location name": "Saswad", "ESMI_ID": null, "Category": "Other Municipal Area", "Connection Type": "Domestic", "Lat": 18.35003101, "Lon": 74.03204172, "climate_zone_DN": 3, "climate_zone_name": "Tropical, savannah", "climate_zone_code": "Aw" }, "geometry": { "type": "Point", "coordinates": [ 74.03204172, 18.35003101 ] } },
{ "type": "Feature", "properties": { "station_id": 432, "Location name": "Shaniwarpeth", "ESMI_ID": null, "Category": "District Headquarters", "Connection Type": "Domestic", "Lat": 18.51872928, "Lon": 73.85150036, "climate_zone_DN": 3, "climate_zone_name": "Tropical, savannah", "climate_zone_code": "Aw" }, "geometry": { "type": "Point", "coordinates": [ 73.85150036, 18.51872928 ] } },
{ "type": "Feature", "properties": { "station_id": 437, "Location name": "Shiv Colony", "ESMI_ID": null, "Category": "District Headquarters", "Connection Type": "Domestic", "Lat": 19.96149368, "Lon": 73.78261998000001, "climate_zone_DN": 3, "climate_zone_name": "Tropical, savannah", "climate_zone_code": "Aw" }, "geometry": { "type": "Point", "coordinates": [ 73.78261998, 19.96149368 ] } },
{ "type": "Feature", "properties": { "station_id": 439, "Location name": "Shivaji Nagar", "ESMI_ID": null, "Category": "District Headquarters", "Connection Type": "Domestic", "Lat": 15.8706654, "Lon": 74.52325322, "climate_zone_DN": 3, "climate_zone_name": "Tropical, savannah", "climate_zone_code": "Aw" }, "geometry": { "type": "Point", "coordinates": [ 74.52325322, 15.8706654 ] } },
{ "type": "Feature", "properties": { "station_id": 442, "Location name": "Shyam Nagar Bhopal", "ESMI_ID": null, "Category": "District Headquarters", "Connection Type": "Domestic", "Lat": 23.1920071, "Lon": 77.39694737000001, "climate_zone_DN": 3, "climate_zone_name": "Tropical, savannah", "climate_zone_code": "Aw" }, "geometry": { "type": "Point", "coordinates": [ 77.39694737, 23.1920071 ] } },
{ "type": "Feature", "properties": { "station_id": 450, "Location name": "Spurtank Road", "ESMI_ID": null, "Category": "State Capital", "Connection Type": "Domestic", "Lat": 13.07076021, "Lon": 80.24739908, "climate_zone_DN": 3, "climate_zone_name": "Tropical, savannah", "climate_zone_code": "Aw" }, "geometry": { "type": "Point", "coordinates": [ 80.24739908, 13.07076021 ] } },
{ "type": "Feature", "properties": { "station_id": 461, "Location name": "T Nagar Chennai", "ESMI_ID": null, "Category": "State Capital", "Connection Type": "Domestic", "Lat": 13.04278157, "Lon": 80.2364651, "climate_zone_DN": 3, "climate_zone_name": "Tropical, savannah", "climate_zone_code": "Aw" }, "geometry": { "type": "Point", "coordinates": [ 80.2364651, 13.04278157 ] } },
{ "type": "Feature", "properties": { "station_id": 464, "Location name": "Talegaon", "ESMI_ID": null, "Category": "Other Municipal Area", "Connection Type": "Domestic", "Lat": 18.73078792, "Lon": 73.68054382, "climate_zone_DN": 3, "climate_zone_name": "Tropical, savannah", "climate_zone_code": "Aw" }, "geometry": { "type": "Point", "coordinates": [ 73.68054382, 18.73078792 ] } },
{ "type": "Feature", "properties": { "station_id": 468, "Location name": "Tarnaka", "ESMI_ID": null, "Category": "State Capital", "Connection Type": "Domestic", "Lat": 17.42639703, "Lon": 78.53799481, "climate_zone_DN": 3, "climate_zone_name": "Tropical, savannah", "climate_zone_code": "Aw" }, "geometry": { "type": "Point", "coordinates": [ 78.53799481, 17.42639703 ] } },
{ "type": "Feature", "properties": { "station_id": 474, "Location name": "Thendral Nagar Avadi", "ESMI_ID": null, "Category": "State Capital", "Connection Type": "Domestic", "Lat": 13.11249097, "Lon": 80.07098847, "climate_zone_DN": 3, "climate_zone_name": "Tropical, savannah", "climate_zone_code": "Aw" }, "geometry": { "type": "Point", "coordinates": [ 80.07098847, 13.11249097 ] } },
{ "type": "Feature", "properties": { "station_id": 475, "Location name": "Theradi Kadai Street Chidambaram", "ESMI_ID": null, "Category": "Other Municipal Area", "Connection Type": "Non Domestic", "Lat": 11.39970811, "Lon": 79.69653564, "climate_zone_DN": 3, "climate_zone_name": "Tropical, savannah", "climate_zone_code": "Aw" }, "geometry": { "type": "Point", "coordinates": [ 79.69653564, 11.39970811 ] } },
{ "type": "Feature", "properties": { "station_id": 476, "Location name": "Thiruvetkalam", "ESMI_ID": null, "Category": "Gram Panchayat", "Connection Type": "Domestic", "Lat": 11.39174408, "Lon": 79.71822982, "climate_zone_DN": 3, "climate_zone_name": "Tropical, savannah", "climate_zone_code": "Aw" }, "geometry": { "type": "Point", "coordinates": [ 79.71822982, 11.39174408 ] } },
{ "type": "Feature", "properties": { "station_id": 479, "Location name": "Tilak Nagar", "ESMI_ID": null, "Category": "District Headquarters", "Connection Type": "Domestic", "Lat": 21.14590328, "Lon": 79.05901137, "climate_zone_DN": 3, "climate_zone_name": "Tropical, savannah", "climate_zone_code": "Aw" }, "geometry": { "type": "Point", "coordinates": [ 79.05901137, 21.14590328 ] } },
{ "type": "Feature", "properties": { "station_id": 480, "Location name": "TNHB colony Avadi", "ESMI_ID": null, "Category": "State Capital", "Connection Type": "Domestic", "Lat": 13.11303949, "Lon": 80.10200798, "climate_zone_DN": 3, "climate_zone_name": "Tropical, savannah", "climate_zone_code": "Aw" }, "geometry": { "type": "Point", "coordinates": [ 80.10200798, 13.11303949 ] } },
{ "type": "Feature", "properties": { "station_id": 482, "Location name": "Udyambaug", "ESMI_ID": null, "Category": "District Headquarters", "Connection Type": "Domestic", "Lat": 15.81974801, "Lon": 74.48942761000001, "climate_zone_DN": 3, "climate_zone_name": "Tropical, savannah", "climate_zone_code": "Aw" }, "geometry": { "type": "Point", "coordinates": [ 74.48942761, 15.81974801 ] } },
{ "type": "Feature", "properties": { "station_id": 489, "Location name": "Vanaparty ", "ESMI_ID": null, "Category": "District Headquarters", "Connection Type": "Domestic", "Lat": 17.95681616, "Lon": 79.6021226, "climate_zone_DN": 3, "climate_zone_name": "Tropical, savannah", "climate_zone_code": "Aw" }, "geometry": { "type": "Point", "coordinates": [ 79.6021226, 17.95681616 ] } },
{ "type": "Feature", "properties": { "station_id": 492, "Location name": "Velachery Chennai", "ESMI_ID": null, "Category": "State Capital", "Connection Type": "Domestic", "Lat": 12.97898702, "Lon": 80.22101621, "climate_zone_DN": 3, "climate_zone_name": "Tropical, savannah", "climate_zone_code": "Aw" }, "geometry": { "type": "Point", "coordinates": [ 80.22101621, 12.97898702 ] } },
{ "type": "Feature", "properties": { "station_id": 495, "Location name": "Vijay Nagar", "ESMI_ID": null, "Category": "State Capital", "Connection Type": "Domestic", "Lat": 17.39429481, "Lon": 78.45101625, "climate_zone_DN": 3, "climate_zone_name": "Tropical, savannah", "climate_zone_code": "Aw" }, "geometry": { "type": "Point", "coordinates": [ 78.45101625, 17.39429481 ] } },
{ "type": "Feature", "properties": { "station_id": 496, "Location name": "Vijaylakshmipuram Ambathur", "ESMI_ID": null, "Category": "State Capital", "Connection Type": "Domestic", "Lat": 13.12422962, "Lon": 80.15413992000001, "climate_zone_DN": 3, "climate_zone_name": "Tropical, savannah", "climate_zone_code": "Aw" }, "geometry": { "type": "Point", "coordinates": [ 80.15413992, 13.12422962 ] } },
{ "type": "Feature", "properties": { "station_id": 500, "Location name": "VPuram", "ESMI_ID": null, "Category": "State Capital", "Connection Type": "Domestic", "Lat": 17.3254363, "Lon": 78.57317564, "climate_zone_DN": 3, "climate_zone_name": "Tropical, savannah", "climate_zone_code": "Aw" }, "geometry": { "type": "Point", "coordinates": [ 78.57317564, 17.3254363 ] } },
{ "type": "Feature", "properties": { "station_id": 501, "Location name": "VSR Nagar Chidambaram", "ESMI_ID": null, "Category": "Other Municipal Area", "Connection Type": "Domestic", "Lat": 11.40417555, "Lon": 79.68013647, "climate_zone_DN": 3, "climate_zone_name": "Tropical, savannah", "climate_zone_code": "Aw" }, "geometry": { "type": "Point", "coordinates": [ 79.68013647, 11.40417555 ] } },
{ "type": "Feature", "properties": { "station_id": 502, "Location name": "VV Puram ", "ESMI_ID": null, "Category": "State Capital", "Connection Type": "Domestic", "Lat": 12.95239718, "Lon": 77.57678966, "climate_zone_DN": 3, "climate_zone_name": "Tropical, savannah", "climate_zone_code": "Aw" }, "geometry": { "type": "Point", "coordinates": [ 77.57678966, 12.95239718 ] } },
{ "type": "Feature", "properties": { "station_id": 503, "Location name": "Waddicherla ", "ESMI_ID": null, "Category": "District Headquarters", "Connection Type": "Domestic", "Lat": 17.65772118, "Lon": 79.24469934, "climate_zone_DN": 3, "climate_zone_name": "Tropical, savannah", "climate_zone_code": "Aw" }, "geometry": { "type": "Point", "coordinates": [ 79.24469934, 17.65772118 ] } },
{ "type": "Feature", "properties": { "station_id": 506, "Location name": "West cross street Chidambaram", "ESMI_ID": null, "Category": "Other Municipal Area", "Connection Type": "Non Domestic", "Lat": 11.40207242, "Lon": 79.69116258, "climate_zone_DN": 3, "climate_zone_name": "Tropical, savannah", "climate_zone_code": "Aw" }, "geometry": { "type": "Point", "coordinates": [ 79.69116258, 11.40207242 ] } },
{ "type": "Feature", "properties": { "station_id": 508, "Location name": "Yelahanka ", "ESMI_ID": null, "Category": "State Capital", "Connection Type": "Domestic", "Lat": 13.11751591, "Lon": 77.59940714, "climate_zone_DN": 3, "climate_zone_name": "Tropical, savannah", "climate_zone_code": "Aw" }, "geometry": { "type": "Point", "coordinates": [ 77.59940714, 13.11751591 ] } },
{ "type": "Feature", "properties": { "station_id": 509, "Location name": "Yellur", "ESMI_ID": null, "Category": "Gram Panchayat", "Connection Type": "Domestic", "Lat": 15.78057293, "Lon": 74.52202273, "climate_zone_DN": 3, "climate_zone_name": "Tropical, savannah", "climate_zone_code": "Aw" }, "geometry": { "type": "Point", "coordinates": [ 74.52202273, 15.78057293 ] } },
{ "type": "Feature", "properties": { "station_id": 521, "Location name": "Oragadam Ambathur", "ESMI_ID": null, "Category": "State Capital", "Connection Type": "Domestic", "Lat": 13.13451391, "Lon": 80.15153182, "climate_zone_DN": 3, "climate_zone_name": "Tropical, savannah", "climate_zone_code": "Aw" }, "geometry": { "type": "Point", "coordinates": [ 80.15153182, 13.13451391 ] } },
{ "type": "Feature", "properties": { "station_id": 529, "Location name": "Sahakar Nagar", "ESMI_ID": 119, "Category": "District Headquarters", "Connection Type": "Domestic", "Lat": 18.48984534, "Lon": 73.84679158, "climate_zone_DN": 3, "climate_zone_name": "Tropical, savannah", "climate_zone_code": "Aw" }, "geometry": { "type": "Point", "coordinates": [ 73.84679158, 18.48984534 ] } },
{ "type": "Feature", "properties": { "station_id": 530, "Location name": "Aundh", "ESMI_ID": 130, "Category": null, "Connection Type": null, "Lat": 18.55105111, "Lon": 73.80853932, "climate_zone_DN": 3, "climate_zone_name": "Tropical, savannah", "climate_zone_code": "Aw" }, "geometry": { "type": "Point", "coordinates": [ 73.80853932, 18.55105111 ] } },
{ "type": "Feature", "properties": { "station_id": 531, "Location name": "PEG (Kothrud)", "ESMI_ID": 137, "Category": "District Headquarters", "Connection Type": "Non Domestic", "Lat": 18.50166172, "Lon": 73.8223785, "climate_zone_DN": 3, "climate_zone_name": "Tropical, savannah", "climate_zone_code": "Aw" }, "geometry": { "type": "Point", "coordinates": [ 73.8223785, 18.50166172 ] } },
{ "type": "Feature", "properties": { "station_id": 532, "Location name": "Ameerpet", "ESMI_ID": 171, "Category": "State Capital", "Connection Type": "Domestic", "Lat": 17.43443761, "Lon": 78.45388323, "climate_zone_DN": 3, "climate_zone_name": "Tropical, savannah", "climate_zone_code": "Aw" }, "geometry": { "type": "Point", "coordinates": [ 78.45388323, 17.43443761 ] } },
{ "type": "Feature", "properties": { "station_id": 533, "Location name": "Srirampura", "ESMI_ID": 212, "Category": "State Capital", "Connection Type": "Non Domestic", "Lat": 13.06873736, "Lon": 77.6148191, "climate_zone_DN": 3, "climate_zone_name": "Tropical, savannah", "climate_zone_code": "Aw" }, "geometry": { "type": "Point", "coordinates": [ 77.6148191, 13.06873736 ] } },
{ "type": "Feature", "properties": { "station_id": 536, "Location name": "Prithvi Avenue", "ESMI_ID": 439, "Category": "State Capital", "Connection Type": "Domestic", "Lat": 13.02986343, "Lon": 80.25359066, "climate_zone_DN": 3, "climate_zone_name": "Tropical, savannah", "climate_zone_code": "Aw" }, "geometry": { "type": "Point", "coordinates": [ 80.25359066, 13.02986343 ] } },
{ "type": "Feature", "properties": { "station_id": 541, "Location name": "Banjara Hills", "ESMI_ID": 673, "Category": "State Capital", "Connection Type": "Domestic", "Lat": 17.4170613, "Lon": 78.44818246, "climate_zone_DN": 3, "climate_zone_name": "Tropical, savannah", "climate_zone_code": "Aw" }, "geometry": { "type": "Point", "coordinates": [ 78.44818246, 17.4170613 ] } },
{ "type": "Feature", "properties": { "station_id": 544, "Location name": "Saheed Nagar", "ESMI_ID": 749, "Category": "State Capital", "Connection Type": "Domestic", "Lat": 20.29576995, "Lon": 85.84527015, "climate_zone_DN": 3, "climate_zone_name": "Tropical, savannah", "climate_zone_code": "Aw" }, "geometry": { "type": "Point", "coordinates": [ 85.84527015, 20.29576995 ] } },
{ "type": "Feature", "properties": { "station_id": 546, "Location name": "Besant Nagar", "ESMI_ID": 849, "Category": null, "Connection Type": null, "Lat": 13.00001241, "Lon": 80.26501864, "climate_zone_DN": 3, "climate_zone_name": "Tropical, savannah", "climate_zone_code": "Aw" }, "geometry": { "type": "Point", "coordinates": [ 80.26501864, 13.00001241 ] } },
{ "type": "Feature", "properties": { "station_id": 552, "Location name": "Kothrud", "ESMI_ID": 875, "Category": null, "Connection Type": null, "Lat": 18.50972943, "Lon": 73.81414443, "climate_zone_DN": 3, "climate_zone_name": "Tropical, savannah", "climate_zone_code": "Aw" }, "geometry": { "type": "Point", "coordinates": [ 73.81414443, 18.50972943 ] } },
{ "type": "Feature", "properties": { "station_id": 572, "Location name": "Wani", "ESMI_ID": 914, "Category": "Gram Panchayat", "Connection Type": "Agriculture", "Lat": 20.0599, "Lon": 78.9299, "climate_zone_DN": 3, "climate_zone_name": "Tropical, savannah", "climate_zone_code": "Aw" }, "geometry": { "type": "Point", "coordinates": [ 78.9299, 20.0599 ] } },
{ "type": "Feature", "properties": { "station_id": 2, "Location name": "80 feet road", "ESMI_ID": null, "Category": "District Headquarters", "Connection Type": "Domestic", "Lat": 20.89519943, "Lon": 74.7759818, "climate_zone_DN": 6, "climate_zone_name": "Arid, steppe, hot", "climate_zone_code": "BSh" }, "geometry": { "type": "Point", "coordinates": [ 74.7759818, 20.89519943 ] } },
{ "type": "Feature", "properties": { "station_id": 16, "Location name": "Allipur", "ESMI_ID": null, "Category": "Gram Panchayat", "Connection Type": "Domestic", "Lat": 25.77271525, "Lon": 81.24369716, "climate_zone_DN": 6, "climate_zone_name": "Arid, steppe, hot", "climate_zone_code": "BSh" }, "geometry": { "type": "Point", "coordinates": [ 81.24369716, 25.77271525 ] } },
{ "type": "Feature", "properties": { "station_id": 22, "Location name": "Anegundi", "ESMI_ID": null, "Category": "Gram Panchayat", "Connection Type": "Non Domestic", "Lat": 15.3526957, "Lon": 76.49206813000001, "climate_zone_DN": 6, "climate_zone_name": "Arid, steppe, hot", "climate_zone_code": "BSh" }, "geometry": { "type": "Point", "coordinates": [ 76.49206813, 15.3526957 ] } },
{ "type": "Feature", "properties": { "station_id": 24, "Location name": "Anjad", "ESMI_ID": null, "Category": "Other Municipal Area", "Connection Type": "Domestic", "Lat": 22.0426494, "Lon": 75.05567134, "climate_zone_DN": 6, "climate_zone_name": "Arid, steppe, hot", "climate_zone_code": "BSh" }, "geometry": { "type": "Point", "coordinates": [ 75.05567134, 22.0426494 ] } },
{ "type": "Feature", "properties": { "station_id": 26, "Location name": "Arjun Nagar", "ESMI_ID": null, "Category": "District Headquarters", "Connection Type": "Domestic", "Lat": 28.6589157, "Lon": 77.4320992, "climate_zone_DN": 6, "climate_zone_name": "Arid, steppe, hot", "climate_zone_code": "BSh" }, "geometry": { "type": "Point", "coordinates": [ 77.4320992, 28.6589157 ] } },
{ "type": "Feature", "properties": { "station_id": 34, "Location name": "Awali", "ESMI_ID": null, "Category": "Gram Panchayat", "Connection Type": "Agriculture", "Lat": 22.07918027, "Lon": 75.02266134, "climate_zone_DN": 6, "climate_zone_name": "Arid, steppe, hot", "climate_zone_code": "BSh" }, "geometry": { "type": "Point", "coordinates": [ 75.02266134, 22.07918027 ] } },
{ "type": "Feature", "properties": { "station_id": 36, "Location name": "Badgujar Colony ", "ESMI_ID": null, "Category": "District Headquarters", "Connection Type": "Domestic", "Lat": 20.9325046, "Lon": 74.7740825, "climate_zone_DN": 6, "climate_zone_name": "Arid, steppe, hot", "climate_zone_code": "BSh" }, "geometry": { "type": "Point", "coordinates": [ 74.7740825, 20.9325046 ] } },
{ "type": "Feature", "properties": { "station_id": 39, "Location name": "Baghru ", "ESMI_ID": null, "Category": "Other Municipal Area", "Connection Type": "Domestic", "Lat": 26.81179206, "Lon": 75.55027528, "climate_zone_DN": 6, "climate_zone_name": "Arid, steppe, hot", "climate_zone_code": "BSh" }, "geometry": { "type": "Point", "coordinates": [ 75.55027528, 26.81179206 ] } },
{ "type": "Feature", "properties": { "station_id": 45, "Location name": "Balaji Nagar", "ESMI_ID": null, "Category": "District Headquarters", "Connection Type": "Domestic", "Lat": 20.71498661, "Lon": 76.96890652, "climate_zone_DN": 6, "climate_zone_name": "Arid, steppe, hot", "climate_zone_code": "BSh" }, "geometry": { "type": "Point", "coordinates": [ 76.96890652, 20.71498661 ] } },
{ "type": "Feature", "properties": { "station_id": 50, "Location name": "Bangi Kunta Raichur", "ESMI_ID": null, "Category": "District Headquarters", "Connection Type": "Domestic", "Lat": 16.20668853, "Lon": 77.3612175, "climate_zone_DN": 6, "climate_zone_name": "Arid, steppe, hot", "climate_zone_code": "BSh" }, "geometry": { "type": "Point", "coordinates": [ 77.3612175, 16.20668853 ] } },
{ "type": "Feature", "properties": { "station_id": 53, "Location name": "Baramati", "ESMI_ID": null, "Category": "Other Municipal Area", "Connection Type": "Domestic", "Lat": 18.18078997, "Lon": 74.5917106, "climate_zone_DN": 6, "climate_zone_name": "Arid, steppe, hot", "climate_zone_code": "BSh" }, "geometry": { "type": "Point", "coordinates": [ 74.5917106, 18.18078997 ] } },
{ "type": "Feature", "properties": { "station_id": 54, "Location name": "Barapal", "ESMI_ID": null, "Category": "Gram Panchayat", "Connection Type": "Domestic", "Lat": 24.38630518, "Lon": 73.63825877, "climate_zone_DN": 6, "climate_zone_name": "Arid, steppe, hot", "climate_zone_code": "BSh" }, "geometry": { "type": "Point", "coordinates": [ 73.63825877, 24.38630518 ] } },
{ "type": "Feature", "properties": { "station_id": 58, "Location name": "Barra 2", "ESMI_ID": null, "Category": "District Headquarters", "Connection Type": "Domestic", "Lat": 26.43465751, "Lon": 80.30154314000001, "climate_zone_DN": 6, "climate_zone_name": "Arid, steppe, hot", "climate_zone_code": "BSh" }, "geometry": { "type": "Point", "coordinates": [ 80.30154314, 26.43465751 ] } },
{ "type": "Feature", "properties": { "station_id": 59, "Location name": "Barra ", "ESMI_ID": null, "Category": "District Headquarters", "Connection Type": "Domestic", "Lat": 26.43465751, "Lon": 80.30154314000001, "climate_zone_DN": 6, "climate_zone_name": "Arid, steppe, hot", "climate_zone_code": "BSh" }, "geometry": { "type": "Point", "coordinates": [ 80.30154314, 26.43465751 ] } },
{ "type": "Feature", "properties": { "station_id": 72, "Location name": "Bhajanpura", "ESMI_ID": null, "Category": "State Capital", "Connection Type": "Domestic", "Lat": 28.70016123, "Lon": 77.26070656, "climate_zone_DN": 6, "climate_zone_name": "Arid, steppe, hot", "climate_zone_code": "BSh" }, "geometry": { "type": "Point", "coordinates": [ 77.26070656, 28.70016123 ] } },
{ "type": "Feature", "properties": { "station_id": 73, "Location name": "Bhaji market", "ESMI_ID": null, "Category": "District Headquarters", "Connection Type": "Domestic", "Lat": 20.9065582, "Lon": 74.75868721000001, "climate_zone_DN": 6, "climate_zone_name": "Arid, steppe, hot", "climate_zone_code": "BSh" }, "geometry": { "type": "Point", "coordinates": [ 74.75868721, 20.9065582 ] } },
{ "type": "Feature", "properties": { "station_id": 84, "Location name": "Birhana Road", "ESMI_ID": null, "Category": "District Headquarters", "Connection Type": "Non Domestic", "Lat": 26.46273361, "Lon": 80.35442154, "climate_zone_DN": 6, "climate_zone_name": "Arid, steppe, hot", "climate_zone_code": "BSh" }, "geometry": { "type": "Point", "coordinates": [ 80.35442154, 26.46273361 ] } },
{ "type": "Feature", "properties": { "station_id": 86, "Location name": "Bodireddypally", "ESMI_ID": null, "Category": "Gram Panchayat", "Connection Type": "Domestic", "Lat": 15.90374042, "Lon": 79.31677226, "climate_zone_DN": 6, "climate_zone_name": "Arid, steppe, hot", "climate_zone_code": "BSh" }, "geometry": { "type": "Point", "coordinates": [ 79.31677226, 15.90374042 ] } },
{ "type": "Feature", "properties": { "station_id": 89, "Location name": "Brahmpuri", "ESMI_ID": null, "Category": "District Headquarters", "Connection Type": "Domestic", "Lat": 24.57742234, "Lon": 73.69293966, "climate_zone_DN": 6, "climate_zone_name": "Arid, steppe, hot", "climate_zone_code": "BSh" }, "geometry": { "type": "Point", "coordinates": [ 73.69293966, 24.57742234 ] } },
{ "type": "Feature", "properties": { "station_id": 95, "Location name": "Chandikapur", "ESMI_ID": null, "Category": "Gram Panchayat", "Connection Type": "Agriculture", "Lat": 20.98300105, "Lon": 77.5078143, "climate_zone_DN": 6, "climate_zone_name": "Arid, steppe, hot", "climate_zone_code": "BSh" }, "geometry": { "type": "Point", "coordinates": [ 77.5078143, 20.98300105 ] } },
{ "type": "Feature", "properties": { "station_id": 99, "Location name": "Chatali Village", "ESMI_ID": null, "Category": "Gram Panchayat", "Connection Type": "Domestic", "Lat": 21.67175334, "Lon": 75.03459326, "climate_zone_DN": 6, "climate_zone_name": "Arid, steppe, hot", "climate_zone_code": "BSh" }, "geometry": { "type": "Point", "coordinates": [ 75.03459326, 21.67175334 ] } },
{ "type": "Feature", "properties": { "station_id": 100, "Location name": "Chatali", "ESMI_ID": null, "Category": "Gram Panchayat", "Connection Type": "Agriculture", "Lat": 21.67184487, "Lon": 75.03392816, "climate_zone_DN": 6, "climate_zone_name": "Arid, steppe, hot", "climate_zone_code": "BSh" }, "geometry": { "type": "Point", "coordinates": [ 75.03392816, 21.67184487 ] } },
{ "type": "Feature", "properties": { "station_id": 102, "Location name": "Chhota Badada ", "ESMI_ID": null, "Category": "Gram Panchayat", "Connection Type": "Domestic", "Lat": 22.03827771, "Lon": 74.904031, "climate_zone_DN": 6, "climate_zone_name": "Arid, steppe, hot", "climate_zone_code": "BSh" }, "geometry": { "type": "Point", "coordinates": [ 74.904031, 22.03827771 ] } },
{ "type": "Feature", "properties": { "station_id": 110, "Location name": "Civil Line", "ESMI_ID": null, "Category": "District Headquarters", "Connection Type": "Non Domestic", "Lat": 26.47325628, "Lon": 80.35636776, "climate_zone_DN": 6, "climate_zone_name": "Arid, steppe, hot", "climate_zone_code": "BSh" }, "geometry": { "type": "Point", "coordinates": [ 80.35636776, 26.47325628 ] } },
{ "type": "Feature", "properties": { "station_id": 112, "Location name": "Civil Lines ", "ESMI_ID": null, "Category": "State Capital", "Connection Type": "Non Domestic", "Lat": 26.90745991, "Lon": 75.78264405, "climate_zone_DN": 6, "climate_zone_name": "Arid, steppe, hot", "climate_zone_code": "BSh" }, "geometry": { "type": "Point", "coordinates": [ 75.78264405, 26.90745991 ] } },
{ "type": "Feature", "properties": { "station_id": 124, "Location name": "Debari Village", "ESMI_ID": null, "Category": "Gram Panchayat", "Connection Type": "Domestic", "Lat": 24.60278384, "Lon": 73.81640198, "climate_zone_DN": 6, "climate_zone_name": "Arid, steppe, hot", "climate_zone_code": "BSh" }, "geometry": { "type": "Point", "coordinates": [ 73.81640198, 24.60278384 ] } },
{ "type": "Feature", "properties": { "station_id": 131, "Location name": "Dhanoli Agra", "ESMI_ID": null, "Category": "Gram Panchayat", "Connection Type": "Non Domestic", "Lat": 27.17991484, "Lon": 78.01989285000001, "climate_zone_DN": 6, "climate_zone_name": "Arid, steppe, hot", "climate_zone_code": "BSh" }, "geometry": { "type": "Point", "coordinates": [ 78.01989285, 27.17991484 ] } },
{ "type": "Feature", "properties": { "station_id": 141, "Location name": "Gajipur ", "ESMI_ID": null, "Category": "Gram Panchayat", "Connection Type": "Non Domestic", "Lat": 20.702484, "Lon": 77.02414989, "climate_zone_DN": 6, "climate_zone_name": "Arid, steppe, hot", "climate_zone_code": "BSh" }, "geometry": { "type": "Point", "coordinates": [ 77.02414989, 20.702484 ] } },
{ "type": "Feature", "properties": { "station_id": 146, "Location name": "Garladinne", "ESMI_ID": null, "Category": "Other Municipal Area", "Connection Type": "Domestic", "Lat": 14.82373144, "Lon": 77.59601775, "climate_zone_DN": 6, "climate_zone_name": "Arid, steppe, hot", "climate_zone_code": "BSh" }, "geometry": { "type": "Point", "coordinates": [ 77.59601775, 14.82373144 ] } },
{ "type": "Feature", "properties": { "station_id": 152, "Location name": "Gollapalle", "ESMI_ID": null, "Category": "Gram Panchayat", "Connection Type": "Agriculture", "Lat": 15.92544764, "Lon": 79.3970079, "climate_zone_DN": 6, "climate_zone_name": "Arid, steppe, hot", "climate_zone_code": "BSh" }, "geometry": { "type": "Point", "coordinates": [ 79.3970079, 15.92544764 ] } },
{ "type": "Feature", "properties": { "station_id": 155, "Location name": "Gondur", "ESMI_ID": null, "Category": "Gram Panchayat", "Connection Type": "Agriculture", "Lat": 20.96155658, "Lon": 74.700489, "climate_zone_DN": 6, "climate_zone_name": "Arid, steppe, hot", "climate_zone_code": "BSh" }, "geometry": { "type": "Point", "coordinates": [ 74.700489, 20.96155658 ] } },
{ "type": "Feature", "properties": { "station_id": 168, "Location name": "Hathroi", "ESMI_ID": null, "Category": "State Capital", "Connection Type": "Domestic", "Lat": 26.91611967, "Lon": 75.79675915, "climate_zone_DN": 6, "climate_zone_name": "Arid, steppe, hot", "climate_zone_code": "BSh" }, "geometry": { "type": "Point", "coordinates": [ 75.79675915, 26.91611967 ] } },
{ "type": "Feature", "properties": { "station_id": 171, "Location name": "Hiwarkhed (I) ", "ESMI_ID": null, "Category": "Gram Panchayat", "Connection Type": "Non Domestic", "Lat": 21.1326451, "Lon": 76.85742144, "climate_zone_DN": 6, "climate_zone_name": "Arid, steppe, hot", "climate_zone_code": "BSh" }, "geometry": { "type": "Point", "coordinates": [ 76.85742144, 21.1326451 ] } },
{ "type": "Feature", "properties": { "station_id": 172, "Location name": "Hiwarkhed (R)", "ESMI_ID": null, "Category": "Gram Panchayat", "Connection Type": "Domestic", "Lat": 21.1326451, "Lon": 76.85742144, "climate_zone_DN": 6, "climate_zone_name": "Arid, steppe, hot", "climate_zone_code": "BSh" }, "geometry": { "type": "Point", "coordinates": [ 76.85742144, 21.1326451 ] } },
{ "type": "Feature", "properties": { "station_id": 174, "Location name": "Hudem", "ESMI_ID": null, "Category": "Gram Panchayat", "Connection Type": "Non Domestic", "Lat": 14.63328262, "Lon": 76.58160706, "climate_zone_DN": 6, "climate_zone_name": "Arid, steppe, hot", "climate_zone_code": "BSh" }, "geometry": { "type": "Point", "coordinates": [ 76.58160706, 14.63328262 ] } },
{ "type": "Feature", "properties": { "station_id": 186, "Location name": "Indirapuram", "ESMI_ID": null, "Category": "District Headquarters", "Connection Type": "Domestic", "Lat": 28.6495333, "Lon": 77.3660208, "climate_zone_DN": 6, "climate_zone_name": "Arid, steppe, hot", "climate_zone_code": "BSh" }, "geometry": { "type": "Point", "coordinates": [ 77.3660208, 28.6495333 ] } },
{ "type": "Feature", "properties": { "station_id": 204, "Location name": "Jhundapura", "ESMI_ID": null, "Category": "District Headquarters", "Connection Type": "Domestic", "Lat": 28.59743754, "Lon": 77.33143839, "climate_zone_DN": 6, "climate_zone_name": "Arid, steppe, hot", "climate_zone_code": "BSh" }, "geometry": { "type": "Point", "coordinates": [ 77.33143839, 28.59743754 ] } },
{ "type": "Feature", "properties": { "station_id": 212, "Location name": "Kadiri", "ESMI_ID": null, "Category": "Other Municipal Area", "Connection Type": "Domestic", "Lat": 14.12297816, "Lon": 78.16401492, "climate_zone_DN": 6, "climate_zone_name": "Arid, steppe, hot", "climate_zone_code": "BSh" }, "geometry": { "type": "Point", "coordinates": [ 78.16401492, 14.12297816 ] } },
{ "type": "Feature", "properties": { "station_id": 214, "Location name": "Kakadeo", "ESMI_ID": null, "Category": "District Headquarters", "Connection Type": "Domestic", "Lat": 26.47664257, "Lon": 80.28372602, "climate_zone_DN": 6, "climate_zone_name": "Arid, steppe, hot", "climate_zone_code": "BSh" }, "geometry": { "type": "Point", "coordinates": [ 80.28372602, 26.47664257 ] } },
{ "type": "Feature", "properties": { "station_id": 218, "Location name": "Kalyan Nagar", "ESMI_ID": null, "Category": "District Headquarters", "Connection Type": "Domestic", "Lat": 29.97182908, "Lon": 76.81950416, "climate_zone_DN": 6, "climate_zone_name": "Arid, steppe, hot", "climate_zone_code": "BSh" }, "geometry": { "type": "Point", "coordinates": [ 76.81950416, 29.97182908 ] } },
{ "type": "Feature", "properties": { "station_id": 221, "Location name": "Kamkampalli", "ESMI_ID": null, "Category": "Gram Panchayat", "Connection Type": "Domestic", "Lat": 14.66257736, "Lon": 77.59057063, "climate_zone_DN": 6, "climate_zone_name": "Arid, steppe, hot", "climate_zone_code": "BSh" }, "geometry": { "type": "Point", "coordinates": [ 77.59057063, 14.66257736 ] } },
{ "type": "Feature", "properties": { "station_id": 223, "Location name": "Kanheri Sarap", "ESMI_ID": null, "Category": "Gram Panchayat", "Connection Type": "Agriculture", "Lat": 20.63901912, "Lon": 77.04517719, "climate_zone_DN": 6, "climate_zone_name": "Arid, steppe, hot", "climate_zone_code": "BSh" }, "geometry": { "type": "Point", "coordinates": [ 77.04517719, 20.63901912 ] } },
{ "type": "Feature", "properties": { "station_id": 227, "Location name": "Kannur", "ESMI_ID": null, "Category": "Gram Panchayat", "Connection Type": "Non Domestic", "Lat": 17.03156921, "Lon": 75.70044593, "climate_zone_DN": 6, "climate_zone_name": "Arid, steppe, hot", "climate_zone_code": "BSh" }, "geometry": { "type": "Point", "coordinates": [ 75.70044593, 17.03156921 ] } },
{ "type": "Feature", "properties": { "station_id": 233, "Location name": "Kasbe Sukene", "ESMI_ID": null, "Category": "Gram Panchayat", "Connection Type": "Domestic", "Lat": 20.07836363, "Lon": 74.01511779000001, "climate_zone_DN": 6, "climate_zone_name": "Arid, steppe, hot", "climate_zone_code": "BSh" }, "geometry": { "type": "Point", "coordinates": [ 74.01511779, 20.07836363 ] } },
{ "type": "Feature", "properties": { "station_id": 235, "Location name": "Kasrawad Basahat ", "ESMI_ID": null, "Category": "Gram Panchayat", "Connection Type": "Domestic", "Lat": 22.05284845, "Lon": 74.93825034, "climate_zone_DN": 6, "climate_zone_name": "Arid, steppe, hot", "climate_zone_code": "BSh" }, "geometry": { "type": "Point", "coordinates": [ 74.93825034, 22.05284845 ] } },
{ "type": "Feature", "properties": { "station_id": 238, "Location name": "Kedar Nagar Agra", "ESMI_ID": null, "Category": "District Headquarters", "Connection Type": "Domestic", "Lat": 27.17550781, "Lon": 77.97348219, "climate_zone_DN": 6, "climate_zone_name": "Arid, steppe, hot", "climate_zone_code": "BSh" }, "geometry": { "type": "Point", "coordinates": [ 77.97348219, 27.17550781 ] } },
{ "type": "Feature", "properties": { "station_id": 243, "Location name": "Khadki", "ESMI_ID": null, "Category": "Other Municipal Area", "Connection Type": "Domestic", "Lat": 20.6668927, "Lon": 77.02253531, "climate_zone_DN": 6, "climate_zone_name": "Arid, steppe, hot", "climate_zone_code": "BSh" }, "geometry": { "type": "Point", "coordinates": [ 77.02253531, 20.6668927 ] } },
{ "type": "Feature", "properties": { "station_id": 245, "Location name": "Khaga", "ESMI_ID": null, "Category": "Gram Panchayat", "Connection Type": "Domestic", "Lat": 25.77195143, "Lon": 81.11057515, "climate_zone_DN": 6, "climate_zone_name": "Arid, steppe, hot", "climate_zone_code": "BSh" }, "geometry": { "type": "Point", "coordinates": [ 81.11057515, 25.77195143 ] } },
{ "type": "Feature", "properties": { "station_id": 250, "Location name": "Kirti Nagar ", "ESMI_ID": null, "Category": "District Headquarters", "Connection Type": "Domestic", "Lat": 20.69565165, "Lon": 77.01627657, "climate_zone_DN": 6, "climate_zone_name": "Arid, steppe, hot", "climate_zone_code": "BSh" }, "geometry": { "type": "Point", "coordinates": [ 77.01627657, 20.69565165 ] } },
{ "type": "Feature", "properties": { "station_id": 252, "Location name": "Kotanka", "ESMI_ID": null, "Category": "Gram Panchayat", "Connection Type": "Domestic", "Lat": 14.77188643, "Lon": 77.49890436, "climate_zone_DN": 6, "climate_zone_name": "Arid, steppe, hot", "climate_zone_code": "BSh" }, "geometry": { "type": "Point", "coordinates": [ 77.49890436, 14.77188643 ] } },
{ "type": "Feature", "properties": { "station_id": 262, "Location name": "Lajpat Nagar", "ESMI_ID": null, "Category": "State Capital", "Connection Type": "Non Domestic", "Lat": 28.56885994, "Lon": 77.24254045000001, "climate_zone_DN": 6, "climate_zone_name": "Arid, steppe, hot", "climate_zone_code": "BSh" }, "geometry": { "type": "Point", "coordinates": [ 77.24254045, 28.56885994 ] } },
{ "type": "Feature", "properties": { "station_id": 267, "Location name": "Mahabubnagar", "ESMI_ID": null, "Category": "District Headquarters", "Connection Type": "Non Domestic", "Lat": 16.21915339, "Lon": 77.35209598, "climate_zone_DN": 6, "climate_zone_name": "Arid, steppe, hot", "climate_zone_code": "BSh" }, "geometry": { "type": "Point", "coordinates": [ 77.35209598, 16.21915339 ] } },
{ "type": "Feature", "properties": { "station_id": 274, "Location name": "Malcha Marg", "ESMI_ID": null, "Category": "State Capital", "Connection Type": "Non Domestic", "Lat": 28.60169307, "Lon": 77.1860531, "climate_zone_DN": 6, "climate_zone_name": "Arid, steppe, hot", "climate_zone_code": "BSh" }, "geometry": { "type": "Point", "coordinates": [ 77.1860531, 28.60169307 ] } },
{ "type": "Feature", "properties": { "station_id": 284, "Location name": "Mansarovar", "ESMI_ID": null, "Category": "State Capital", "Connection Type": "Domestic", "Lat": 26.85385704, "Lon": 75.75888966, "climate_zone_DN": 6, "climate_zone_name": "Arid, steppe, hot", "climate_zone_code": "BSh" }, "geometry": { "type": "Point", "coordinates": [ 75.75888966, 26.85385704 ] } },
{ "type": "Feature", "properties": { "station_id": 289, "Location name": "Masvanpur", "ESMI_ID": null, "Category": "District Headquarters", "Connection Type": "Domestic", "Lat": 26.48267994, "Lon": 80.26221499, "climate_zone_DN": 6, "climate_zone_name": "Arid, steppe, hot", "climate_zone_code": "BSh" }, "geometry": { "type": "Point", "coordinates": [ 80.26221499, 26.48267994 ] } },
{ "type": "Feature", "properties": { "station_id": 294, "Location name": "Mavli", "ESMI_ID": null, "Category": "Gram Panchayat", "Connection Type": "Domestic", "Lat": 24.78857098, "Lon": 73.97692311, "climate_zone_DN": 6, "climate_zone_name": "Arid, steppe, hot", "climate_zone_code": "BSh" }, "geometry": { "type": "Point", "coordinates": [ 73.97692311, 24.78857098 ] } },
{ "type": "Feature", "properties": { "station_id": 295, "Location name": "Mayur Vihar (III)", "ESMI_ID": null, "Category": "State Capital", "Connection Type": "Domestic", "Lat": 28.61471323, "Lon": 77.33278712000001, "climate_zone_DN": 6, "climate_zone_name": "Arid, steppe, hot", "climate_zone_code": "BSh" }, "geometry": { "type": "Point", "coordinates": [ 77.33278712, 28.61471323 ] } },
{ "type": "Feature", "properties": { "station_id": 298, "Location name": "Meerpet ", "ESMI_ID": null, "Category": "State Capital", "Connection Type": "Domestic", "Lat": 17.32239317, "Lon": 78.53172208, "climate_zone_DN": 6, "climate_zone_name": "Arid, steppe, hot", "climate_zone_code": "BSh" }, "geometry": { "type": "Point", "coordinates": [ 78.53172208, 17.32239317 ] } },
{ "type": "Feature", "properties": { "station_id": 299, "Location name": "Meerut Road Ghaziabad", "ESMI_ID": null, "Category": "District Headquarters", "Connection Type": "Non Domestic", "Lat": 28.74899089, "Lon": 77.48969108, "climate_zone_DN": 6, "climate_zone_name": "Arid, steppe, hot", "climate_zone_code": "BSh" }, "geometry": { "type": "Point", "coordinates": [ 77.48969108, 28.74899089 ] } },
{ "type": "Feature", "properties": { "station_id": 300, "Location name": "Menar", "ESMI_ID": null, "Category": "Gram Panchayat", "Connection Type": "Domestic", "Lat": 24.59223764, "Lon": 74.10415627, "climate_zone_DN": 6, "climate_zone_name": "Arid, steppe, hot", "climate_zone_code": "BSh" }, "geometry": { "type": "Point", "coordinates": [ 74.10415627, 24.59223764 ] } },
{ "type": "Feature", "properties": { "station_id": 301, "Location name": "MG Road Ghaziabad", "ESMI_ID": null, "Category": "District Headquarters", "Connection Type": "Non Domestic", "Lat": 28.64535696, "Lon": 77.24395085, "climate_zone_DN": 6, "climate_zone_name": "Arid, steppe, hot", "climate_zone_code": "BSh" }, "geometry": { "type": "Point", "coordinates": [ 77.24395085, 28.64535696 ] } },
{ "type": "Feature", "properties": { "station_id": 304, "Location name": "MIDC Awadhan", "ESMI_ID": null, "Category": "District Headquarters", "Connection Type": "Non Domestic", "Lat": 20.84557443, "Lon": 74.75540889, "climate_zone_DN": 6, "climate_zone_name": "Arid, steppe, hot", "climate_zone_code": "BSh" }, "geometry": { "type": "Point", "coordinates": [ 74.75540889, 20.84557443 ] } },
{ "type": "Feature", "properties": { "station_id": 309, "Location name": "Mohipura ", "ESMI_ID": null, "Category": "Gram Panchayat", "Connection Type": "Agriculture", "Lat": 22.06838831, "Lon": 75.11096222, "climate_zone_DN": 6, "climate_zone_name": "Arid, steppe, hot", "climate_zone_code": "BSh" }, "geometry": { "type": "Point", "coordinates": [ 75.11096222, 22.06838831 ] } },
{ "type": "Feature", "properties": { "station_id": 310, "Location name": "Mohipura Farm", "ESMI_ID": null, "Category": "Gram Panchayat", "Connection Type": "Agriculture", "Lat": 22.06838831, "Lon": 75.11096222, "climate_zone_DN": 6, "climate_zone_name": "Arid, steppe, hot", "climate_zone_code": "BSh" }, "geometry": { "type": "Point", "coordinates": [ 75.11096222, 22.06838831 ] } },
{ "type": "Feature", "properties": { "station_id": 311, "Location name": "Mohol", "ESMI_ID": null, "Category": "Gram Panchayat", "Connection Type": "Domestic", "Lat": 17.80872823, "Lon": 75.63894889, "climate_zone_DN": 6, "climate_zone_name": "Arid, steppe, hot", "climate_zone_code": "BSh" }, "geometry": { "type": "Point", "coordinates": [ 75.63894889, 17.80872823 ] } },
{ "type": "Feature", "properties": { "station_id": 321, "Location name": "Nandamuri Nagar", "ESMI_ID": null, "Category": "District Headquarters", "Connection Type": "Non Domestic", "Lat": 14.67885861, "Lon": 77.56547934, "climate_zone_DN": 6, "climate_zone_name": "Arid, steppe, hot", "climate_zone_code": "BSh" }, "geometry": { "type": "Point", "coordinates": [ 77.56547934, 14.67885861 ] } },
{ "type": "Feature", "properties": { "station_id": 324, "Location name": "Navalpura ", "ESMI_ID": null, "Category": "Other Municipal Area", "Connection Type": "Domestic", "Lat": 22.0382913, "Lon": 74.90196945, "climate_zone_DN": 6, "climate_zone_name": "Arid, steppe, hot", "climate_zone_code": "BSh" }, "geometry": { "type": "Point", "coordinates": [ 74.90196945, 22.0382913 ] } },
{ "type": "Feature", "properties": { "station_id": 331, "Location name": "Nimgaon Ketki ", "ESMI_ID": null, "Category": "Gram Panchayat", "Connection Type": "Domestic", "Lat": 18.08430183, "Lon": 74.91632929, "climate_zone_DN": 6, "climate_zone_name": "Arid, steppe, hot", "climate_zone_code": "BSh" }, "geometry": { "type": "Point", "coordinates": [ 74.91632929, 18.08430183 ] } },
{ "type": "Feature", "properties": { "station_id": 340, "Location name": "Pachmori", "ESMI_ID": null, "Category": "Gram Panchayat", "Connection Type": "Non Domestic", "Lat": 20.70168093, "Lon": 77.02543736, "climate_zone_DN": 6, "climate_zone_name": "Arid, steppe, hot", "climate_zone_code": "BSh" }, "geometry": { "type": "Point", "coordinates": [ 77.02543736, 20.70168093 ] } },
{ "type": "Feature", "properties": { "station_id": 346, "Location name": "Panchavati", "ESMI_ID": null, "Category": "District Headquarters", "Connection Type": "Non Domestic", "Lat": 24.60282837, "Lon": 73.6885581, "climate_zone_DN": 6, "climate_zone_name": "Arid, steppe, hot", "climate_zone_code": "BSh" }, "geometry": { "type": "Point", "coordinates": [ 73.6885581, 24.60282837 ] } },
{ "type": "Feature", "properties": { "station_id": 348, "Location name": "Panki CF", "ESMI_ID": null, "Category": "District Headquarters", "Connection Type": "Non Domestic", "Lat": 26.48198323, "Lon": 80.2442303, "climate_zone_DN": 6, "climate_zone_name": "Arid, steppe, hot", "climate_zone_code": "BSh" }, "geometry": { "type": "Point", "coordinates": [ 80.2442303, 26.48198323 ] } },
{ "type": "Feature", "properties": { "station_id": 349, "Location name": "Panki", "ESMI_ID": null, "Category": "District Headquarters", "Connection Type": "Non Domestic", "Lat": 26.48198323, "Lon": 80.2442303, "climate_zone_DN": 6, "climate_zone_name": "Arid, steppe, hot", "climate_zone_code": "BSh" }, "geometry": { "type": "Point", "coordinates": [ 80.2442303, 26.48198323 ] } },
{ "type": "Feature", "properties": { "station_id": 350, "Location name": "Parai", "ESMI_ID": null, "Category": "Gram Panchayat", "Connection Type": "Non Domestic", "Lat": 24.18693586, "Lon": 73.68898834, "climate_zone_DN": 6, "climate_zone_name": "Arid, steppe, hot", "climate_zone_code": "BSh" }, "geometry": { "type": "Point", "coordinates": [ 73.68898834, 24.18693586 ] } },
{ "type": "Feature", "properties": { "station_id": 352, "Location name": "Patel Nagar Fatehpur ", "ESMI_ID": null, "Category": "District Headquarters", "Connection Type": "Domestic", "Lat": 25.92136536, "Lon": 80.81954853000001, "climate_zone_DN": 6, "climate_zone_name": "Arid, steppe, hot", "climate_zone_code": "BSh" }, "geometry": { "type": "Point", "coordinates": [ 80.81954853, 25.92136536 ] } },
{ "type": "Feature", "properties": { "station_id": 354, "Location name": "Pathauli", "ESMI_ID": null, "Category": "Gram Panchayat", "Connection Type": "Domestic", "Lat": 27.16058568, "Lon": 77.93391097, "climate_zone_DN": 6, "climate_zone_name": "Arid, steppe, hot", "climate_zone_code": "BSh" }, "geometry": { "type": "Point", "coordinates": [ 77.93391097, 27.16058568 ] } },
{ "type": "Feature", "properties": { "station_id": 355, "Location name": "Patrakar Colony", "ESMI_ID": null, "Category": "District Headquarters", "Connection Type": "Domestic", "Lat": 20.9022309, "Lon": 74.76387223, "climate_zone_DN": 6, "climate_zone_name": "Arid, steppe, hot", "climate_zone_code": "BSh" }, "geometry": { "type": "Point", "coordinates": [ 74.76387223, 20.9022309 ] } },
{ "type": "Feature", "properties": { "station_id": 359, "Location name": "Pichhodi ", "ESMI_ID": null, "Category": "Gram Panchayat", "Connection Type": "Agriculture", "Lat": 21.69356496, "Lon": 74.95438324, "climate_zone_DN": 6, "climate_zone_name": "Arid, steppe, hot", "climate_zone_code": "BSh" }, "geometry": { "type": "Point", "coordinates": [ 74.95438324, 21.69356496 ] } },
{ "type": "Feature", "properties": { "station_id": 362, "Location name": "Pitampura", "ESMI_ID": null, "Category": "State Capital", "Connection Type": "Domestic", "Lat": 28.70367187, "Lon": 77.12672014, "climate_zone_DN": 6, "climate_zone_name": "Arid, steppe, hot", "climate_zone_code": "BSh" }, "geometry": { "type": "Point", "coordinates": [ 77.12672014, 28.70367187 ] } },
{ "type": "Feature", "properties": { "station_id": 365, "Location name": "Professor Colony", "ESMI_ID": null, "Category": "District Headquarters", "Connection Type": "Domestic", "Lat": 20.91335246, "Lon": 74.77244767000001, "climate_zone_DN": 6, "climate_zone_name": "Arid, steppe, hot", "climate_zone_code": "BSh" }, "geometry": { "type": "Point", "coordinates": [ 74.77244767, 20.91335246 ] } },
{ "type": "Feature", "properties": { "station_id": 373, "Location name": "Raibaug", "ESMI_ID": null, "Category": "Gram Panchayat", "Connection Type": "Domestic", "Lat": 16.48955736, "Lon": 74.77307617, "climate_zone_DN": 6, "climate_zone_name": "Arid, steppe, hot", "climate_zone_code": "BSh" }, "geometry": { "type": "Point", "coordinates": [ 74.77307617, 16.48955736 ] } },
{ "type": "Feature", "properties": { "station_id": 374, "Location name": "Raj Nagar", "ESMI_ID": null, "Category": "District Headquarters", "Connection Type": "Domestic", "Lat": 28.68252029, "Lon": 77.44597752, "climate_zone_DN": 6, "climate_zone_name": "Arid, steppe, hot", "climate_zone_code": "BSh" }, "geometry": { "type": "Point", "coordinates": [ 77.44597752, 28.68252029 ] } },
{ "type": "Feature", "properties": { "station_id": 377, "Location name": "Rajendra Gunj Raichur", "ESMI_ID": null, "Category": "District Headquarters", "Connection Type": "Domestic", "Lat": 16.2301925, "Lon": 77.36033372, "climate_zone_DN": 6, "climate_zone_name": "Arid, steppe, hot", "climate_zone_code": "BSh" }, "geometry": { "type": "Point", "coordinates": [ 77.36033372, 16.2301925 ] } },
{ "type": "Feature", "properties": { "station_id": 378, "Location name": "Ram Bagh Agra", "ESMI_ID": null, "Category": "District Headquarters", "Connection Type": "Domestic", "Lat": 27.20766685, "Lon": 78.03983, "climate_zone_DN": 6, "climate_zone_name": "Arid, steppe, hot", "climate_zone_code": "BSh" }, "geometry": { "type": "Point", "coordinates": [ 78.03983, 27.20766685 ] } },
{ "type": "Feature", "properties": { "station_id": 379, "Location name": "Ram Nagar", "ESMI_ID": null, "Category": "District Headquarters", "Connection Type": "Domestic", "Lat": 24.34994832, "Lon": 73.73935461000001, "climate_zone_DN": 6, "climate_zone_name": "Arid, steppe, hot", "climate_zone_code": "BSh" }, "geometry": { "type": "Point", "coordinates": [ 73.73935461, 24.34994832 ] } },
{ "type": "Feature", "properties": { "station_id": 381, "Location name": "Ramganj", "ESMI_ID": null, "Category": "State Capital", "Connection Type": "Non Domestic", "Lat": 26.91976711, "Lon": 75.83174848, "climate_zone_DN": 6, "climate_zone_name": "Arid, steppe, hot", "climate_zone_code": "BSh" }, "geometry": { "type": "Point", "coordinates": [ 75.83174848, 26.91976711 ] } },
{ "type": "Feature", "properties": { "station_id": 389, "Location name": "Renuka Nagar ", "ESMI_ID": null, "Category": "District Headquarters", "Connection Type": "Domestic", "Lat": 20.70650095, "Lon": 76.97871016000001, "climate_zone_DN": 6, "climate_zone_name": "Arid, steppe, hot", "climate_zone_code": "BSh" }, "geometry": { "type": "Point", "coordinates": [ 76.97871016, 20.70650095 ] } },
{ "type": "Feature", "properties": { "station_id": 395, "Location name": "Sahakar Marg", "ESMI_ID": null, "Category": "State Capital", "Connection Type": "Domestic", "Lat": 26.89096564, "Lon": 75.7943418, "climate_zone_DN": 6, "climate_zone_name": "Arid, steppe, hot", "climate_zone_code": "BSh" }, "geometry": { "type": "Point", "coordinates": [ 75.7943418, 26.89096564 ] } },
{ "type": "Feature", "properties": { "station_id": 401, "Location name": "Sahibabad Industrial Area", "ESMI_ID": null, "Category": "District Headquarters", "Connection Type": "Non Domestic", "Lat": 28.68066031, "Lon": 77.34718829000001, "climate_zone_DN": 6, "climate_zone_name": "Arid, steppe, hot", "climate_zone_code": "BSh" }, "geometry": { "type": "Point", "coordinates": [ 77.34718829, 28.68066031 ] } },
{ "type": "Feature", "properties": { "station_id": 402, "Location name": "Sai", "ESMI_ID": null, "Category": "Gram Panchayat", "Connection Type": "Domestic", "Lat": 25.92283138, "Lon": 80.81817524, "climate_zone_DN": 6, "climate_zone_name": "Arid, steppe, hot", "climate_zone_code": "BSh" }, "geometry": { "type": "Point", "coordinates": [ 80.81817524, 25.92283138 ] } },
{ "type": "Feature", "properties": { "station_id": 408, "Location name": "Samata Nagar ", "ESMI_ID": null, "Category": "District Headquarters", "Connection Type": "Domestic", "Lat": 20.87200941, "Lon": 74.76622135, "climate_zone_DN": 6, "climate_zone_name": "Arid, steppe, hot", "climate_zone_code": "BSh" }, "geometry": { "type": "Point", "coordinates": [ 74.76622135, 20.87200941 ] } },
{ "type": "Feature", "properties": { "station_id": 423, "Location name": "SavariyaPani", "ESMI_ID": null, "Category": "Gram Panchayat", "Connection Type": "Domestic", "Lat": 22.03761833, "Lon": 74.90402428, "climate_zone_DN": 6, "climate_zone_name": "Arid, steppe, hot", "climate_zone_code": "BSh" }, "geometry": { "type": "Point", "coordinates": [ 74.90402428, 22.03761833 ] } },
{ "type": "Feature", "properties": { "station_id": 428, "Location name": "Sector 56", "ESMI_ID": null, "Category": "District Headquarters", "Connection Type": "Domestic", "Lat": 28.42442612, "Lon": 77.1004888, "climate_zone_DN": 6, "climate_zone_name": "Arid, steppe, hot", "climate_zone_code": "BSh" }, "geometry": { "type": "Point", "coordinates": [ 77.1004888, 28.42442612 ] } },
{ "type": "Feature", "properties": { "station_id": 431, "Location name": "Shakurpur", "ESMI_ID": null, "Category": "State Capital", "Connection Type": "Domestic", "Lat": 28.68715204, "Lon": 77.14107106, "climate_zone_DN": 6, "climate_zone_name": "Arid, steppe, hot", "climate_zone_code": "BSh" }, "geometry": { "type": "Point", "coordinates": [ 77.14107106, 28.68715204 ] } },
{ "type": "Feature", "properties": { "station_id": 434, "Location name": "Shastri Nagar", "ESMI_ID": null, "Category": "District Headquarters", "Connection Type": "Non Domestic", "Lat": 26.46462607, "Lon": 80.30289581, "climate_zone_DN": 6, "climate_zone_name": "Arid, steppe, hot", "climate_zone_code": "BSh" }, "geometry": { "type": "Point", "coordinates": [ 80.30289581, 26.46462607 ] } },
{ "type": "Feature", "properties": { "station_id": 435, "Location name": "Shingave", "ESMI_ID": null, "Category": "Gram Panchayat", "Connection Type": "Non Domestic", "Lat": 19.7978385, "Lon": 74.55609799, "climate_zone_DN": 6, "climate_zone_name": "Arid, steppe, hot", "climate_zone_code": "BSh" }, "geometry": { "type": "Point", "coordinates": [ 74.55609799, 19.7978385 ] } },
{ "type": "Feature", "properties": { "station_id": 440, "Location name": "Shivdaspura", "ESMI_ID": null, "Category": "Gram Panchayat", "Connection Type": "Non Domestic", "Lat": 26.70930131, "Lon": 75.89586662000001, "climate_zone_DN": 6, "climate_zone_name": "Arid, steppe, hot", "climate_zone_code": "BSh" }, "geometry": { "type": "Point", "coordinates": [ 75.89586662, 26.70930131 ] } },
{ "type": "Feature", "properties": { "station_id": 446, "Location name": "Sikandra Agra", "ESMI_ID": null, "Category": "District Headquarters", "Connection Type": "Domestic", "Lat": 27.21332243, "Lon": 77.94311909, "climate_zone_DN": 6, "climate_zone_name": "Arid, steppe, hot", "climate_zone_code": "BSh" }, "geometry": { "type": "Point", "coordinates": [ 77.94311909, 27.21332243 ] } },
{ "type": "Feature", "properties": { "station_id": 448, "Location name": "SirsiRoad ", "ESMI_ID": null, "Category": "State Capital", "Connection Type": "Domestic", "Lat": 26.91025371, "Lon": 75.68346579, "climate_zone_DN": 6, "climate_zone_name": "Arid, steppe, hot", "climate_zone_code": "BSh" }, "geometry": { "type": "Point", "coordinates": [ 75.68346579, 26.91025371 ] } },
{ "type": "Feature", "properties": { "station_id": 458, "Location name": "Supa ", "ESMI_ID": null, "Category": "Gram Panchayat", "Connection Type": "Domestic", "Lat": 18.33495247, "Lon": 74.37747361, "climate_zone_DN": 6, "climate_zone_name": "Arid, steppe, hot", "climate_zone_code": "BSh" }, "geometry": { "type": "Point", "coordinates": [ 74.37747361, 18.33495247 ] } },
{ "type": "Feature", "properties": { "station_id": 460, "Location name": "Swaroop Nagar ", "ESMI_ID": null, "Category": "District Headquarters", "Connection Type": "Domestic", "Lat": 26.48391994, "Lon": 80.31563726, "climate_zone_DN": 6, "climate_zone_name": "Arid, steppe, hot", "climate_zone_code": "BSh" }, "geometry": { "type": "Point", "coordinates": [ 80.31563726, 26.48391994 ] } },
{ "type": "Feature", "properties": { "station_id": 462, "Location name": "Taj East Gate Road Agra ", "ESMI_ID": null, "Category": "District Headquarters", "Connection Type": "Non Domestic", "Lat": 27.16477194, "Lon": 78.05755628, "climate_zone_DN": 6, "climate_zone_name": "Arid, steppe, hot", "climate_zone_code": "BSh" }, "geometry": { "type": "Point", "coordinates": [ 78.05755628, 27.16477194 ] } },
{ "type": "Feature", "properties": { "station_id": 466, "Location name": "Tapadiya Nagar ", "ESMI_ID": null, "Category": "District Headquarters", "Connection Type": "Domestic", "Lat": 20.71856971, "Lon": 77.01140888, "climate_zone_DN": 6, "climate_zone_name": "Arid, steppe, hot", "climate_zone_code": "BSh" }, "geometry": { "type": "Point", "coordinates": [ 77.01140888, 20.71856971 ] } },
{ "type": "Feature", "properties": { "station_id": 471, "Location name": "Thana", "ESMI_ID": null, "Category": "Gram Panchayat", "Connection Type": "Agriculture", "Lat": 24.6063798, "Lon": 73.69937465, "climate_zone_DN": 6, "climate_zone_name": "Arid, steppe, hot", "climate_zone_code": "BSh" }, "geometry": { "type": "Point", "coordinates": [ 73.69937465, 24.6063798 ] } },
{ "type": "Feature", "properties": { "station_id": 484, "Location name": "University ", "ESMI_ID": null, "Category": "District Headquarters", "Connection Type": "Domestic", "Lat": 29.95388236, "Lon": 76.81789494, "climate_zone_DN": 6, "climate_zone_name": "Arid, steppe, hot", "climate_zone_code": "BSh" }, "geometry": { "type": "Point", "coordinates": [ 76.81789494, 29.95388236 ] } },
{ "type": "Feature", "properties": { "station_id": 485, "Location name": "University Quarter", "ESMI_ID": null, "Category": "District Headquarters", "Connection Type": "Domestic", "Lat": 29.9514904, "Lon": 76.81882761, "climate_zone_DN": 6, "climate_zone_name": "Arid, steppe, hot", "climate_zone_code": "BSh" }, "geometry": { "type": "Point", "coordinates": [ 76.81882761, 29.9514904 ] } },
{ "type": "Feature", "properties": { "station_id": 486, "Location name": "Uppal", "ESMI_ID": null, "Category": "State Capital", "Connection Type": "Domestic", "Lat": 17.40433833, "Lon": 78.56353639, "climate_zone_DN": 6, "climate_zone_name": "Arid, steppe, hot", "climate_zone_code": "BSh" }, "geometry": { "type": "Point", "coordinates": [ 78.56353639, 17.40433833 ] } },
{ "type": "Feature", "properties": { "station_id": 487, "Location name": "UPSIDC Site C Agra", "ESMI_ID": null, "Category": "District Headquarters", "Connection Type": "Non Domestic", "Lat": 27.21251257, "Lon": 77.94393951000001, "climate_zone_DN": 6, "climate_zone_name": "Arid, steppe, hot", "climate_zone_code": "BSh" }, "geometry": { "type": "Point", "coordinates": [ 77.94393951, 27.21251257 ] } },
{ "type": "Feature", "properties": { "station_id": 488, "Location name": "Vaishali Nagar", "ESMI_ID": null, "Category": "State Capital", "Connection Type": "Domestic", "Lat": 26.90679956, "Lon": 75.7398587, "climate_zone_DN": 6, "climate_zone_name": "Arid, steppe, hot", "climate_zone_code": "BSh" }, "geometry": { "type": "Point", "coordinates": [ 75.7398587, 26.90679956 ] } },
{ "type": "Feature", "properties": { "station_id": 490, "Location name": "Vasant Kunj", "ESMI_ID": null, "Category": "State Capital", "Connection Type": "Domestic", "Lat": 28.52683739, "Lon": 77.1520799, "climate_zone_DN": 6, "climate_zone_name": "Arid, steppe, hot", "climate_zone_code": "BSh" }, "geometry": { "type": "Point", "coordinates": [ 77.1520799, 28.52683739 ] } },
{ "type": "Feature", "properties": { "station_id": 493, "Location name": "Vidya Nagar", "ESMI_ID": null, "Category": "State Capital", "Connection Type": "Domestic", "Lat": 17.40617857, "Lon": 78.51240127, "climate_zone_DN": 6, "climate_zone_name": "Arid, steppe, hot", "climate_zone_code": "BSh" }, "geometry": { "type": "Point", "coordinates": [ 78.51240127, 17.40617857 ] } },
{ "type": "Feature", "properties": { "station_id": 497, "Location name": "Vikas Nagar", "ESMI_ID": null, "Category": "District Headquarters", "Connection Type": "Non Domestic", "Lat": 26.49298369, "Lon": 80.28450196, "climate_zone_DN": 6, "climate_zone_name": "Arid, steppe, hot", "climate_zone_code": "BSh" }, "geometry": { "type": "Point", "coordinates": [ 80.28450196, 26.49298369 ] } },
{ "type": "Feature", "properties": { "station_id": 504, "Location name": "Wani ", "ESMI_ID": 914, "Category": "Gram Panchayat", "Connection Type": "Agriculture", "Lat": 20.88361053, "Lon": 74.76213979000001, "climate_zone_DN": 6, "climate_zone_name": "Arid, steppe, hot", "climate_zone_code": "BSh" }, "geometry": { "type": "Point", "coordinates": [ 74.76213979, 20.88361053 ] } },
{ "type": "Feature", "properties": { "station_id": 510, "Location name": "Ziniret Chowk", "ESMI_ID": null, "Category": "District Headquarters", "Connection Type": "Domestic", "Lat": 24.57985421, "Lon": 73.69376192, "climate_zone_DN": 6, "climate_zone_name": "Arid, steppe, hot", "climate_zone_code": "BSh" }, "geometry": { "type": "Point", "coordinates": [ 73.69376192, 24.57985421 ] } },
{ "type": "Feature", "properties": { "station_id": 535, "Location name": "Deopur", "ESMI_ID": 302, "Category": "District Headquarters", "Connection Type": "Domestic", "Lat": 20.92002389, "Lon": 74.74999078, "climate_zone_DN": 6, "climate_zone_name": "Arid, steppe, hot", "climate_zone_code": "BSh" }, "geometry": { "type": "Point", "coordinates": [ 74.74999078, 20.92002389 ] } },
{ "type": "Feature", "properties": { "station_id": 540, "Location name": "Sri Ram Rang Pura", "ESMI_ID": 570, "Category": "Gram Panchayat", "Connection Type": "Non Domestic", "Lat": 15.28354838, "Lon": 76.64444763, "climate_zone_DN": 6, "climate_zone_name": "Arid, steppe, hot", "climate_zone_code": "BSh" }, "geometry": { "type": "Point", "coordinates": [ 76.64444763, 15.28354838 ] } },
{ "type": "Feature", "properties": { "station_id": 406, "Location name": "Saliyana Gairsain", "ESMI_ID": null, "Category": "Gram Panchayat", "Connection Type": "Domestic", "Lat": 30.48433368, "Lon": 79.56186778, "climate_zone_DN": 22, "climate_zone_name": "Cold, dry winter, warm summer", "climate_zone_code": "Dwb" }, "geometry": { "type": "Point", "coordinates": [ 79.56186778, 30.48433368 ] } },
{ "type": "Feature", "properties": { "station_id": 9, "Location name": "Ajekar", "ESMI_ID": null, "Category": "Gram Panchayat", "Connection Type": "Domestic", "Lat": 13.32050918, "Lon": 74.99880704, "climate_zone_DN": 2, "climate_zone_name": "Tropical, monsoon", "climate_zone_code": "Am" }, "geometry": { "type": "Point", "coordinates": [ 74.99880704, 13.32050918 ] } },
{ "type": "Feature", "properties": { "station_id": 43, "Location name": "Bail Bazar", "ESMI_ID": null, "Category": "Other Municipal Area", "Connection Type": "Domestic", "Lat": 19.23735451, "Lon": 73.12548363000001, "climate_zone_DN": 2, "climate_zone_name": "Tropical, monsoon", "climate_zone_code": "Am" }, "geometry": { "type": "Point", "coordinates": [ 73.12548363, 19.23735451 ] } },